[{"comune": "Abano Terme", "codice_belfiore": "A001", "zona_climatica": null, "altitudine": null, "gradi_giorno": null, "lat": 45.360314, "lng": 11.789783, "abitanti": "19868", "provincia": "Padova", "codice_provincia": "PD", "regione": "Veneto", "stato": "Italia", "codice_stato": "IT"}, {"comune": "Abbadia Cerreto", "codice_belfiore": "A004", "zona_climatica": null, "altitudine": null, "gradi_giorno": null, "lat": 45.311912, "lng": 9.594212, "abitanti": "283", "provincia": "Lodi", "codice_provincia": "LO", "regione": "Lombardia", "stato": "Italia", "codice_stato": "IT"}, {"comune": "Abbadia Lariana", "codice_belfiore": "A005", "zona_climatica": null, "altitudine": null, "gradi_giorno": null, "lat": 45.900045, "lng": 9.334056, "abitanti": "3190", "provincia": "Lecco", "codice_provincia": "LC", "regione": "Lombardia", "stato": "Italia", "codice_stato": "IT"}, {"comune": "Abbadia San Salvatore", "codice_belfiore": "A006", "zona_climatica": null, "altitudine": null, "gradi_giorno": null, "lat": 42.880972, "lng": 11.67242, "abitanti": "6157", "provincia": "Siena", "codice_provincia": "SI", "regione": "Toscana", "stato": "Italia", "codice_stato": "IT"}, {"comune": "Abbasanta", "codice_belfiore": "A007", "zona_climatica": null, "altitudine": null, "gradi_giorno": null, "lat": 40.126752, "lng": 8.818027, "abitanti": "2556", "provincia": "Oristano", "codice_provincia": "OR", "regione": "Sardegna", "stato": "Italia", "codice_stato": "IT"}, {"comune": "Abbateggio", "codice_belfiore": "A008", "zona_climatica": null, "altitudine": null, "gradi_giorno": null, "lat": 42.225137, "lng": 14.011106, "abitanti": "363", "provincia": "Pescara", "codice_provincia": "PE", "regione": "Abruzzo", "stato": "Italia", "codice_stato": "IT"}, {"comune": "Abbiategrasso", "codice_belfiore": "A010", "zona_climatica": null, "altitudine": null, "gradi_giorno": null, "lat": 45.398733, "lng": 8.91623, "abitanti": "32473", "provincia": "Milano", "codice_provincia": "MI", "regione": "Lombardia", "stato": "Italia", "codice_stato": "IT"}, {"comune": "Abetone Cutigliano", "codice_belfiore": "M376", "zona_climatica": null, "altitudine": null, "gradi_giorno": null, "lat": 44.124864, "lng": 10.711228, "abitanti": "1997", "provincia": "Pistoia", "codice_provincia": "PT", "regione": "Toscana", "stato": "Italia", "codice_stato": "IT"}, {"comune": "Abriola", "codice_belfiore": "A013", "zona_climatica": null, "altitudine": null, "gradi_giorno": null, "lat": 40.507882, "lng": 15.81376, "abitanti": "1345", "provincia": "Potenza", "codice_provincia": "PZ", "regione": "Basilicata", "stato": "Italia", "codice_stato": "IT"}, {"comune": "Acate", "codice_belfiore": "A014", "zona_climatica": null, "altitudine": null, "gradi_giorno": null, "lat": 37.02504, "lng": 14.492981, "abitanti": "10945", "provincia": "Ragusa", "codice_provincia": "RG", "regione": "Sicilia", "stato": "Italia", "codice_stato": "IT"}, {"comune": "Accadia", "codice_belfiore": "A015", "zona_climatica": null, "altitudine": null, "gradi_giorno": null, "lat": 41.158824, "lng": 15.33145, "abitanti": "2275", "provincia": "Foggia", "codice_provincia": "FG", "regione": "Puglia", "stato": "Italia", "codice_stato": "IT"}, {"comune": "Acceglio", "codice_belfiore": "A016", "zona_climatica": null, "altitudine": null, "gradi_giorno": null, "lat": 44.474627, "lng": 6.990918, "abitanti": "157", "provincia": "Cuneo", "codice_provincia": "CN", "regione": "Piemonte", "stato": "Italia", "codice_stato": "IT"}, {"comune": "Accettura", "codice_belfiore": "A017", "zona_climatica": null, "altitudine": null, "gradi_giorno": null, "lat": 40.491016, "lng": 16.157977, "abitanti": "1706", "provincia": "Matera", "codice_provincia": "MT", "regione": "Basilicata", "stato": "Italia", "codice_stato": "IT"}, {"comune": "Acciano", "codice_belfiore": "A018", "zona_climatica": null, "altitudine": null, "gradi_giorno": null, "lat": 42.1765, "lng": 13.7179, "abitanti": "300", "provincia": "L'Aquila", "codice_provincia": "AQ", "regione": "Abruzzo", "stato": "Italia", "codice_stato": "IT"}, {"comune": "Accumoli", "codice_belfiore": "A019", "zona_climatica": null, "altitudine": null, "gradi_giorno": null, "lat": 42.694141, "lng": 13.247683, "abitanti": "549", "provincia": "Rieti", "codice_provincia": "RI", "regione": "Lazio", "stato": "Italia", "codice_stato": "IT"}, {"comune": "Acerenza", "codice_belfiore": "A020", "zona_climatica": null, "altitudine": null, "gradi_giorno": null, "lat": 40.792121, "lng": 15.936568, "abitanti": "2229", "provincia": "Potenza", "codice_provincia": "PZ", "regione": "Basilicata", "stato": "Italia", "codice_stato": "IT"}, {"comune": "Acerno", "codice_belfiore": "A023", "zona_climatica": null, "altitudine": null, "gradi_giorno": null, "lat": 40.737713, "lng": 15.056949, "abitanti": "2533", "provincia": "Salerno", "codice_provincia": "SA", "regione": "Campania", "stato": "Italia", "codice_stato": "IT"}, {"comune": "Acerra", "codice_belfiore": "A024", "zona_climatica": null, "altitudine": null, "gradi_giorno": null, "lat": 40.946053, "lng": 14.375008, "abitanti": "58961", "provincia": "Napoli", "codice_provincia": "NA", "regione": "Campania", "stato": "Italia", "codice_stato": "IT"}, {"comune": "Aci Bonaccorsi", "codice_belfiore": "A025", "zona_climatica": null, "altitudine": null, "gradi_giorno": null, "lat": 37.597687, "lng": 15.107937, "abitanti": "3560", "provincia": "Catania", "codice_provincia": "CT", "regione": "Sicilia", "stato": "Italia", "codice_stato": "IT"}, {"comune": "Aci Castello", "codice_belfiore": "A026", "zona_climatica": null, "altitudine": null, "gradi_giorno": null, "lat": 37.554211, "lng": 15.14856, "abitanti": "17618", "provincia": "Catania", "codice_provincia": "CT", "regione": "Sicilia", "stato": "Italia", "codice_stato": "IT"}, {"comune": "Aci Catena", "codice_belfiore": "A027", "zona_climatica": null, "altitudine": null, "gradi_giorno": null, "lat": 37.60257, "lng": 15.14196, "abitanti": "27620", "provincia": "Catania", "codice_provincia": "CT", "regione": "Sicilia", "stato": "Italia", "codice_stato": "IT"}, {"comune": "Aci Sant'Antonio", "codice_belfiore": "A029", "zona_climatica": null, "altitudine": null, "gradi_giorno": null, "lat": 37.606392, "lng": 15.126895, "abitanti": "17882", "provincia": "Catania", "codice_provincia": "CT", "regione": "Sicilia", "stato": "Italia", "codice_stato": "IT"}, {"comune": "Acireale", "codice_belfiore": "A028", "zona_climatica": null, "altitudine": null, "gradi_giorno": null, "lat": 37.612777, "lng": 15.16588, "abitanti": "50744", "provincia": "Catania", "codice_provincia": "CT", "regione": "Sicilia", "stato": "Italia", "codice_stato": "IT"}, {"comune": "Acquafondata", "codice_belfiore": "A032", "zona_climatica": null, "altitudine": null, "gradi_giorno": null, "lat": 41.542822, "lng": 13.952815, "abitanti": "267", "provincia": "Frosinone", "codice_provincia": "FR", "regione": "Lazio", "stato": "Italia", "codice_stato": "IT"}, {"comune": "Acquaformosa", "codice_belfiore": "A033", "zona_climatica": null, "altitudine": null, "gradi_giorno": null, "lat": 39.7231, "lng": 16.089885, "abitanti": "1012", "provincia": "Cosenza", "codice_provincia": "CS", "regione": "Calabria", "stato": "Italia", "codice_stato": "IT"}, {"comune": "Acquafredda", "codice_belfiore": "A034", "zona_climatica": null, "altitudine": null, "gradi_giorno": null, "lat": 45.307378, "lng": 10.414677, "abitanti": "1510", "provincia": "Brescia", "codice_provincia": "BS", "regione": "Lombardia", "stato": "Italia", "codice_stato": "IT"}, {"comune": "Acqualagna", "codice_belfiore": "A035", "zona_climatica": null, "altitudine": null, "gradi_giorno": null, "lat": 43.625884, "lng": 12.675974, "abitanti": "4294", "provincia": "Pesaro e Urbino", "codice_provincia": "PU", "regione": "Marche", "stato": "Italia", "codice_stato": "IT"}, {"comune": "Acquanegra Cremonese", "codice_belfiore": "A039", "zona_climatica": null, "altitudine": null, "gradi_giorno": null, "lat": 45.168436, "lng": 9.890147, "abitanti": "1126", "provincia": "Cremona", "codice_provincia": "CR", "regione": "Lombardia", "stato": "Italia", "codice_stato": "IT"}, {"comune": "Acquanegra sul Chiese", "codice_belfiore": "A038", "zona_climatica": null, "altitudine": null, "gradi_giorno": null, "lat": 45.162475, "lng": 10.43468, "abitanti": "2789", "provincia": "Mantova", "codice_provincia": "MN", "regione": "Lombardia", "stato": "Italia", "codice_stato": "IT"}, {"comune": "Acquapendente", "codice_belfiore": "A040", "zona_climatica": null, "altitudine": null, "gradi_giorno": null, "lat": 42.743996, "lng": 11.864988, "abitanti": "5336", "provincia": "Viterbo", "codice_provincia": "VT", "regione": "Lazio", "stato": "Italia", "codice_stato": "IT"}, {"comune": "Acquappesa", "codice_belfiore": "A041", "zona_climatica": null, "altitudine": null, "gradi_giorno": null, "lat": 39.493695, "lng": 15.952084, "abitanti": "1753", "provincia": "Cosenza", "codice_provincia": "CS", "regione": "Calabria", "stato": "Italia", "codice_stato": "IT"}, {"comune": "Acquaro", "codice_belfiore": "A043", "zona_climatica": null, "altitudine": null, "gradi_giorno": null, "lat": 38.554779, "lng": 16.1872, "abitanti": "1945", "provincia": "Vibo Valentia", "codice_provincia": "VV", "regione": "Calabria", "stato": "Italia", "codice_stato": "IT"}, {"comune": "Acquasanta Terme", "codice_belfiore": "A044", "zona_climatica": null, "altitudine": null, "gradi_giorno": null, "lat": 42.769944, "lng": 13.410185, "abitanti": "2594", "provincia": "Ascoli Piceno", "codice_provincia": "AP", "regione": "Marche", "stato": "Italia", "codice_stato": "IT"}, {"comune": "Acquasparta", "codice_belfiore": "A045", "zona_climatica": null, "altitudine": null, "gradi_giorno": null, "lat": 42.691172, "lng": 12.546451, "abitanti": "4497", "provincia": "Terni", "codice_provincia": "TR", "regione": "Umbria", "stato": "Italia", "codice_stato": "IT"}, {"comune": "Acquaviva Collecroce", "codice_belfiore": "A050", "zona_climatica": null, "altitudine": null, "gradi_giorno": null, "lat": 41.867591, "lng": 14.746793, "abitanti": "591", "provincia": "Campobasso", "codice_provincia": "CB", "regione": "Molise", "stato": "Italia", "codice_stato": "IT"}, {"comune": "Acquaviva d'Isernia", "codice_belfiore": "A051", "zona_climatica": null, "altitudine": null, "gradi_giorno": null, "lat": 41.672126, "lng": 14.148917, "abitanti": "395", "provincia": "Isernia", "codice_provincia": "IS", "regione": "Molise", "stato": "Italia", "codice_stato": "IT"}, {"comune": "Acquaviva delle Fonti", "codice_belfiore": "A048", "zona_climatica": null, "altitudine": null, "gradi_giorno": null, "lat": 40.897829, "lng": 16.842487, "abitanti": "20093", "provincia": "Bari", "codice_provincia": "BA", "regione": "Puglia", "stato": "Italia", "codice_stato": "IT"}, {"comune": "Acquaviva Picena", "codice_belfiore": "A047", "zona_climatica": null, "altitudine": null, "gradi_giorno": null, "lat": 42.944936, "lng": 13.815114, "abitanti": "3695", "provincia": "Ascoli Piceno", "codice_provincia": "AP", "regione": "Marche", "stato": "Italia", "codice_stato": "IT"}, {"comune": "Acquaviva Platani", "codice_belfiore": "A049", "zona_climatica": null, "altitudine": null, "gradi_giorno": null, "lat": 37.571999, "lng": 13.702891, "abitanti": "881", "provincia": "Caltanissetta", "codice_provincia": "CL", "regione": "Sicilia", "stato": "Italia", "codice_stato": "IT"}, {"comune": "Acquedolci", "codice_belfiore": "M211", "zona_climatica": null, "altitudine": null, "gradi_giorno": null, "lat": 38.05604, "lng": 14.581901, "abitanti": "5493", "provincia": "Messina", "codice_provincia": "ME", "regione": "Sicilia", "stato": "Italia", "codice_stato": "IT"}, {"comune": "Acqui Terme", "codice_belfiore": "A052", "zona_climatica": null, "altitudine": null, "gradi_giorno": null, "lat": 44.675145, "lng": 8.467546, "abitanti": "19493", "provincia": "Alessandria", "codice_provincia": "AL", "regione": "Piemonte", "stato": "Italia", "codice_stato": "IT"}, {"comune": "Acri", "codice_belfiore": "A053", "zona_climatica": null, "altitudine": null, "gradi_giorno": null, "lat": 39.493005, "lng": 16.38495, "abitanti": "19733", "provincia": "Cosenza", "codice_provincia": "CS", "regione": "Calabria", "stato": "Italia", "codice_stato": "IT"}, {"comune": "Acuto", "codice_belfiore": "A054", "zona_climatica": null, "altitudine": null, "gradi_giorno": null, "lat": 41.791521, "lng": 13.174394, "abitanti": "1882", "provincia": "Frosinone", "codice_provincia": "FR", "regione": "Lazio", "stato": "Italia", "codice_stato": "IT"}, {"comune": "Adelfia", "codice_belfiore": "A055", "zona_climatica": null, "altitudine": null, "gradi_giorno": null, "lat": 41.004265, "lng": 16.871653, "abitanti": "16490", "provincia": "Bari", "codice_provincia": "BA", "regione": "Puglia", "stato": "Italia", "codice_stato": "IT"}, {"comune": "Adrano", "codice_belfiore": "A056", "zona_climatica": null, "altitudine": null, "gradi_giorno": null, "lat": 37.661777, "lng": 14.833099, "abitanti": "33788", "provincia": "Catania", "codice_provincia": "CT", "regione": "Sicilia", "stato": "Italia", "codice_stato": "IT"}, {"comune": "Adrara San Martino", "codice_belfiore": "A057", "zona_climatica": null, "altitudine": null, "gradi_giorno": null, "lat": 45.699945, "lng": 9.948935, "abitanti": "2185", "provincia": "Bergamo", "codice_provincia": "BG", "regione": "Lombardia", "stato": "Italia", "codice_stato": "IT"}, {"comune": "Adrara San Rocco", "codice_belfiore": "A058", "zona_climatica": null, "altitudine": null, "gradi_giorno": null, "lat": 45.713986, "lng": 9.958705, "abitanti": "782", "provincia": "Bergamo", "codice_provincia": "BG", "regione": "Lombardia", "stato": "Italia", "codice_stato": "IT"}, {"comune": "Adria", "codice_belfiore": "A059", "zona_climatica": null, "altitudine": null, "gradi_giorno": null, "lat": 45.053123, "lng": 12.0572, "abitanti": "18861", "provincia": "Rovigo", "codice_provincia": "RO", "regione": "Veneto", "stato": "Italia", "codice_stato": "IT"}, {"comune": "Adro", "codice_belfiore": "A060", "zona_climatica": null, "altitudine": null, "gradi_giorno": null, "lat": 45.622402, "lng": 9.961376, "abitanti": "7103", "provincia": "Brescia", "codice_provincia": "BS", "regione": "Lombardia", "stato": "Italia", "codice_stato": "IT"}, {"comune": "Affi", "codice_belfiore": "A061", "zona_climatica": null, "altitudine": null, "gradi_giorno": null, "lat": 45.554091, "lng": 10.776424, "abitanti": "2360", "provincia": "Verona", "codice_provincia": "VR", "regione": "Veneto", "stato": "Italia", "codice_stato": "IT"}, {"comune": "Affile", "codice_belfiore": "A062", "zona_climatica": null, "altitudine": null, "gradi_giorno": null, "lat": 41.884122, "lng": 13.095391, "abitanti": "1458", "provincia": "Roma", "codice_provincia": "RM", "regione": "Lazio", "stato": "Italia", "codice_stato": "IT"}, {"comune": "Afragola", "codice_belfiore": "A064", "zona_climatica": null, "altitudine": null, "gradi_giorno": null, "lat": 40.926012, "lng": 14.310831, "abitanti": "62271", "provincia": "Napoli", "codice_provincia": "NA", "regione": "Campania", "stato": "Italia", "codice_stato": "IT"}, {"comune": "Africo", "codice_belfiore": "A065", "zona_climatica": null, "altitudine": null, "gradi_giorno": null, "lat": 38.050669, "lng": 16.133204, "abitanti": "2821", "provincia": "Reggio Calabria", "codice_provincia": "RC", "regione": "Calabria", "stato": "Italia", "codice_stato": "IT"}, {"comune": "Agazzano", "codice_belfiore": "A067", "zona_climatica": null, "altitudine": null, "gradi_giorno": null, "lat": 44.94437, "lng": 9.517685, "abitanti": "1978", "provincia": "Piacenza", "codice_provincia": "PC", "regione": "Emilia-Romagna", "stato": "Italia", "codice_stato": "IT"}, {"comune": "Agerola", "codice_belfiore": "A068", "zona_climatica": null, "altitudine": null, "gradi_giorno": null, "lat": 40.637707, "lng": 14.538839, "abitanti": "7710", "provincia": "Napoli", "codice_provincia": "NA", "regione": "Campania", "stato": "Italia", "codice_stato": "IT"}, {"comune": "Aggius", "codice_belfiore": "A069", "zona_climatica": null, "altitudine": null, "gradi_giorno": null, "lat": 40.929345, "lng": 9.065222, "abitanti": "1418", "provincia": "Sassari", "codice_provincia": "SS", "regione": "Sardegna", "stato": "Italia", "codice_stato": "IT"}, {"comune": "Agira", "codice_belfiore": "A070", "zona_climatica": null, "altitudine": null, "gradi_giorno": null, "lat": 37.656151, "lng": 14.521575, "abitanti": "7799", "provincia": "Enna", "codice_provincia": "EN", "regione": "Sicilia", "stato": "Italia", "codice_stato": "IT"}, {"comune": "Agliana", "codice_belfiore": "A071", "zona_climatica": null, "altitudine": null, "gradi_giorno": null, "lat": 43.903816, "lng": 11.003396, "abitanti": "18057", "provincia": "Pistoia", "codice_provincia": "PT", "regione": "Toscana", "stato": "Italia", "codice_stato": "IT"}, {"comune": "Agliano Terme", "codice_belfiore": "A072", "zona_climatica": null, "altitudine": null, "gradi_giorno": null, "lat": 44.791012, "lng": 8.249988, "abitanti": "1557", "provincia": "Asti", "codice_provincia": "AT", "regione": "Piemonte", "stato": "Italia", "codice_stato": "IT"}, {"comune": "Aglientu", "codice_belfiore": "H848", "zona_climatica": null, "altitudine": null, "gradi_giorno": null, "lat": 41.079573, "lng": 9.112719, "abitanti": "1195", "provincia": "Sassari", "codice_provincia": "SS", "regione": "Sardegna", "stato": "Italia", "codice_stato": "IT"}, {"comune": "Agliè", "codice_belfiore": "A074", "zona_climatica": null, "altitudine": null, "gradi_giorno": null, "lat": 45.367055, "lng": 7.766918, "abitanti": "2548", "provincia": "Torino", "codice_provincia": "TO", "regione": "Piemonte", "stato": "Italia", "codice_stato": "IT"}, {"comune": "Agna", "codice_belfiore": "A075", "zona_climatica": null, "altitudine": null, "gradi_giorno": null, "lat": 45.170164, "lng": 11.960731, "abitanti": "3210", "provincia": "Padova", "codice_provincia": "PD", "regione": "Veneto", "stato": "Italia", "codice_stato": "IT"}, {"comune": "Agnadello", "codice_belfiore": "A076", "zona_climatica": null, "altitudine": null, "gradi_giorno": null, "lat": 45.444374, "lng": 9.557056, "abitanti": "3854", "provincia": "Cremona", "codice_provincia": "CR", "regione": "Lombardia", "stato": "Italia", "codice_stato": "IT"}, {"comune": "Agnana Calabra", "codice_belfiore": "A077", "zona_climatica": null, "altitudine": null, "gradi_giorno": null, "lat": 38.302674, "lng": 16.222904, "abitanti": "482", "provincia": "Reggio Calabria", "codice_provincia": "RC", "regione": "Calabria", "stato": "Italia", "codice_stato": "IT"}, {"comune": "Agnone", "codice_belfiore": "A080", "zona_climatica": null, "altitudine": null, "gradi_giorno": null, "lat": 41.809561, "lng": 14.377046, "abitanti": "4883", "provincia": "Isernia", "codice_provincia": "IS", "regione": "Molise", "stato": "Italia", "codice_stato": "IT"}, {"comune": "Agnosine", "codice_belfiore": "A082", "zona_climatica": null, "altitudine": null, "gradi_giorno": null, "lat": 45.650676, "lng": 10.353335, "abitanti": "1644", "provincia": "Brescia", "codice_provincia": "BS", "regione": "Lombardia", "stato": "Italia", "codice_stato": "IT"}, {"comune": "Agordo", "codice_belfiore": "A083", "zona_climatica": null, "altitudine": null, "gradi_giorno": null, "lat": 46.282147, "lng": 12.034981, "abitanti": "4071", "provincia": "Belluno", "codice_provincia": "BL", "regione": "Veneto", "stato": "Italia", "codice_stato": "IT"}, {"comune": "Agosta", "codice_belfiore": "A084", "zona_climatica": null, "altitudine": null, "gradi_giorno": null, "lat": 41.981624, "lng": 13.032688, "abitanti": "1697", "provincia": "Roma", "codice_provincia": "RM", "regione": "Lazio", "stato": "Italia", "codice_stato": "IT"}, {"comune": "Agra", "codice_belfiore": "A085", "zona_climatica": null, "altitudine": null, "gradi_giorno": null, "lat": 46.035046, "lng": 8.77172, "abitanti": "401", "provincia": "Varese", "codice_provincia": "VA", "regione": "Lombardia", "stato": "Italia", "codice_stato": "IT"}, {"comune": "Agrate Brianza", "codice_belfiore": "A087", "zona_climatica": null, "altitudine": null, "gradi_giorno": null, "lat": 45.576173, "lng": 9.350948, "abitanti": "15189", "provincia": "Monza e della Brianza", "codice_provincia": "MB", "regione": "Lombardia", "stato": "Italia", "codice_stato": "IT"}, {"comune": "Agrate Conturbia", "codice_belfiore": "A088", "zona_climatica": null, "altitudine": null, "gradi_giorno": null, "lat": 45.675837, "lng": 8.559812, "abitanti": "1561", "provincia": "Novara", "codice_provincia": "NO", "regione": "Piemonte", "stato": "Italia", "codice_stato": "IT"}, {"comune": "Agrigento", "codice_belfiore": "A089", "zona_climatica": null, "altitudine": null, "gradi_giorno": null, "lat": 37.312299, "lng": 13.57465, "abitanti": "56045", "provincia": "Agrigento", "codice_provincia": "AG", "regione": "Sicilia", "stato": "Italia", "codice_stato": "IT"}, {"comune": "Agropoli", "codice_belfiore": "A091", "zona_climatica": null, "altitudine": null, "gradi_giorno": null, "lat": 40.346905, "lng": 14.996553, "abitanti": "21590", "provincia": "Salerno", "codice_provincia": "SA", "regione": "Campania", "stato": "Italia", "codice_stato": "IT"}, {"comune": "Agugliano", "codice_belfiore": "A092", "zona_climatica": null, "altitudine": null, "gradi_giorno": null, "lat": 43.543375, "lng": 13.386587, "abitanti": "4770", "provincia": "Ancona", "codice_provincia": "AN", "regione": "Marche", "stato": "Italia", "codice_stato": "IT"}, {"comune": "Agugliaro", "codice_belfiore": "A093", "zona_climatica": null, "altitudine": null, "gradi_giorno": null, "lat": 45.325389, "lng": 11.584203, "abitanti": "1398", "provincia": "Vicenza", "codice_provincia": "VI", "regione": "Veneto", "stato": "Italia", "codice_stato": "IT"}, {"comune": "Aicurzio", "codice_belfiore": "A096", "zona_climatica": null, "altitudine": null, "gradi_giorno": null, "lat": 45.639977, "lng": 9.414949, "abitanti": "2080", "provincia": "Monza e della Brianza", "codice_provincia": "MB", "regione": "Lombardia", "stato": "Italia", "codice_stato": "IT"}, {"comune": "Aidomaggiore", "codice_belfiore": "A097", "zona_climatica": null, "altitudine": null, "gradi_giorno": null, "lat": 40.170753, "lng": 8.856527, "abitanti": "409", "provincia": "Oristano", "codice_provincia": "OR", "regione": "Sardegna", "stato": "Italia", "codice_stato": "IT"}, {"comune": "Aidone", "codice_belfiore": "A098", "zona_climatica": null, "altitudine": null, "gradi_giorno": null, "lat": 37.415421, "lng": 14.445276, "abitanti": "4487", "provincia": "Enna", "codice_provincia": "EN", "regione": "Sicilia", "stato": "Italia", "codice_stato": "IT"}, {"comune": "Aielli", "codice_belfiore": "A100", "zona_climatica": null, "altitudine": null, "gradi_giorno": null, "lat": 42.080283, "lng": 13.590543, "abitanti": "1453", "provincia": "L'Aquila", "codice_provincia": "AQ", "regione": "Abruzzo", "stato": "Italia", "codice_stato": "IT"}, {"comune": "Aiello Calabro", "codice_belfiore": "A102", "zona_climatica": null, "altitudine": null, "gradi_giorno": null, "lat": 39.117469, "lng": 16.166663, "abitanti": "1549", "provincia": "Cosenza", "codice_provincia": "CS", "regione": "Calabria", "stato": "Italia", "codice_stato": "IT"}, {"comune": "Aiello del Friuli", "codice_belfiore": "A103", "zona_climatica": null, "altitudine": null, "gradi_giorno": null, "lat": 45.872922, "lng": 13.363628, "abitanti": "2181", "provincia": "Udine", "codice_provincia": "UD", "regione": "Friuli-Venezia Giulia", "stato": "Italia", "codice_stato": "IT"}, {"comune": "Aiello del Sabato", "codice_belfiore": "A101", "zona_climatica": null, "altitudine": null, "gradi_giorno": null, "lat": 40.887194, "lng": 14.819448, "abitanti": "3962", "provincia": "Avellino", "codice_provincia": "AV", "regione": "Campania", "stato": "Italia", "codice_stato": "IT"}, {"comune": "Aieta", "codice_belfiore": "A105", "zona_climatica": null, "altitudine": null, "gradi_giorno": null, "lat": 39.928575, "lng": 15.82398, "abitanti": "750", "provincia": "Cosenza", "codice_provincia": "CS", "regione": "Calabria", "stato": "Italia", "codice_stato": "IT"}, {"comune": "Ailano", "codice_belfiore": "A106", "zona_climatica": null, "altitudine": null, "gradi_giorno": null, "lat": 41.390624, "lng": 14.203199, "abitanti": "1283", "provincia": "Caserta", "codice_provincia": "CE", "regione": "Campania", "stato": "Italia", "codice_stato": "IT"}, {"comune": "Ailoche", "codice_belfiore": "A107", "zona_climatica": null, "altitudine": null, "gradi_giorno": null, "lat": 45.698291, "lng": 8.221213, "abitanti": "318", "provincia": "Biella", "codice_provincia": "BI", "regione": "Piemonte", "stato": "Italia", "codice_stato": "IT"}, {"comune": "Airasca", "codice_belfiore": "A109", "zona_climatica": null, "altitudine": null, "gradi_giorno": null, "lat": 44.917042, "lng": 7.484321, "abitanti": "3569", "provincia": "Torino", "codice_provincia": "TO", "regione": "Piemonte", "stato": "Italia", "codice_stato": "IT"}, {"comune": "Airola", "codice_belfiore": "A110", "zona_climatica": null, "altitudine": null, "gradi_giorno": null, "lat": 41.061022, "lng": 14.55843, "abitanti": "8115", "provincia": "Benevento", "codice_provincia": "BN", "regione": "Campania", "stato": "Italia", "codice_stato": "IT"}, {"comune": "Airole", "codice_belfiore": "A111", "zona_climatica": null, "altitudine": null, "gradi_giorno": null, "lat": 43.871038, "lng": 7.554181, "abitanti": "355", "provincia": "Imperia", "codice_provincia": "IM", "regione": "Liguria", "stato": "Italia", "codice_stato": "IT"}, {"comune": "Airuno", "codice_belfiore": "A112", "zona_climatica": null, "altitudine": null, "gradi_giorno": null, "lat": 45.75388, "lng": 9.424247, "abitanti": "2782", "provincia": "Lecco", "codice_provincia": "LC", "regione": "Lombardia", "stato": "Italia", "codice_stato": "IT"}, {"comune": "Aisone", "codice_belfiore": "A113", "zona_climatica": null, "altitudine": null, "gradi_giorno": null, "lat": 44.313925, "lng": 7.219626, "abitanti": "212", "provincia": "Cuneo", "codice_provincia": "CN", "regione": "Piemonte", "stato": "Italia", "codice_stato": "IT"}, {"comune": "Ala", "codice_belfiore": "A116", "zona_climatica": null, "altitudine": null, "gradi_giorno": null, "lat": 45.757901, "lng": 11.001818, "abitanti": "8737", "provincia": "Trento", "codice_provincia": "TN", "regione": "Trentino-Alto Adige/Südtirol", "stato": "Italia", "codice_stato": "IT"}, {"comune": "Ala di Stura", "codice_belfiore": "A117", "zona_climatica": null, "altitudine": null, "gradi_giorno": null, "lat": 45.31515, "lng": 7.305909, "abitanti": "448", "provincia": "Torino", "codice_provincia": "TO", "regione": "Piemonte", "stato": "Italia", "codice_stato": "IT"}, {"comune": "Alagna", "codice_belfiore": "A118", "zona_climatica": null, "altitudine": null, "gradi_giorno": null, "lat": 45.169861, "lng": 8.889846, "abitanti": "797", "provincia": "Pavia", "codice_provincia": "PV", "regione": "Lombardia", "stato": "Italia", "codice_stato": "IT"}, {"comune": "Alagna Valsesia", "codice_belfiore": "A119", "zona_climatica": null, "altitudine": null, "gradi_giorno": null, "lat": 45.851211, "lng": 7.937177, "abitanti": "730", "provincia": "Vercelli", "codice_provincia": "VC", "regione": "Piemonte", "stato": "Italia", "codice_stato": "IT"}, {"comune": "Alanno", "codice_belfiore": "A120", "zona_climatica": null, "altitudine": null, "gradi_giorno": null, "lat": 42.295082, "lng": 13.971316, "abitanti": "3447", "provincia": "Pescara", "codice_provincia": "PE", "regione": "Abruzzo", "stato": "Italia", "codice_stato": "IT"}, {"comune": "Alano di Piave", "codice_belfiore": "A121", "zona_climatica": null, "altitudine": null, "gradi_giorno": null, "lat": 45.907803, "lng": 11.908195, "abitanti": "2681", "provincia": "Belluno", "codice_provincia": "BL", "regione": "Veneto", "stato": "Italia", "codice_stato": "IT"}, {"comune": "Alassio", "codice_belfiore": "A122", "zona_climatica": null, "altitudine": null, "gradi_giorno": null, "lat": 44.008011, "lng": 8.173027, "abitanti": "10322", "provincia": "Savona", "codice_provincia": "SV", "regione": "Liguria", "stato": "Italia", "codice_stato": "IT"}, {"comune": "Alatri", "codice_belfiore": "A123", "zona_climatica": null, "altitudine": null, "gradi_giorno": null, "lat": 41.726503, "lng": 13.342303, "abitanti": "27495", "provincia": "Frosinone", "codice_provincia": "FR", "regione": "Lazio", "stato": "Italia", "codice_stato": "IT"}, {"comune": "Alba", "codice_belfiore": "A124", "zona_climatica": null, "altitudine": null, "gradi_giorno": null, "lat": 44.700724, "lng": 8.035779, "abitanti": "31215", "provincia": "Cuneo", "codice_provincia": "CN", "regione": "Piemonte", "stato": "Italia", "codice_stato": "IT"}, {"comune": "Alba Adriatica", "codice_belfiore": "A125", "zona_climatica": null, "altitudine": null, "gradi_giorno": null, "lat": 42.834342, "lng": 13.927816, "abitanti": "12188", "provincia": "Teramo", "codice_provincia": "TE", "regione": "Abruzzo", "stato": "Italia", "codice_stato": "IT"}, {"comune": "Albagiara", "codice_belfiore": "A126", "zona_climatica": null, "altitudine": null, "gradi_giorno": null, "lat": 39.787646, "lng": 8.862032, "abitanti": "242", "provincia": "Oristano", "codice_provincia": "OR", "regione": "Sardegna", "stato": "Italia", "codice_stato": "IT"}, {"comune": "Albairate", "codice_belfiore": "A127", "zona_climatica": null, "altitudine": null, "gradi_giorno": null, "lat": 45.421126, "lng": 8.938136, "abitanti": "4669", "provincia": "Milano", "codice_provincia": "MI", "regione": "Lombardia", "stato": "Italia", "codice_stato": "IT"}, {"comune": "Albanella", "codice_belfiore": "A128", "zona_climatica": null, "altitudine": null, "gradi_giorno": null, "lat": 40.478422, "lng": 15.116608, "abitanti": "6310", "provincia": "Salerno", "codice_provincia": "SA", "regione": "Campania", "stato": "Italia", "codice_stato": "IT"}, {"comune": "Albano di Lucania", "codice_belfiore": "A131", "zona_climatica": null, "altitudine": null, "gradi_giorno": null, "lat": 40.584445, "lng": 16.036716, "abitanti": "1368", "provincia": "Potenza", "codice_provincia": "PZ", "regione": "Basilicata", "stato": "Italia", "codice_stato": "IT"}, {"comune": "Albano Laziale", "codice_belfiore": "A132", "zona_climatica": null, "altitudine": null, "gradi_giorno": null, "lat": 41.728889, "lng": 12.658269, "abitanti": "39349", "provincia": "Roma", "codice_provincia": "RM", "regione": "Lazio", "stato": "Italia", "codice_stato": "IT"}, {"comune": "Albano Sant'Alessandro", "codice_belfiore": "A129", "zona_climatica": null, "altitudine": null, "gradi_giorno": null, "lat": 45.686482, "lng": 9.770656, "abitanti": "8263", "provincia": "Bergamo", "codice_provincia": "BG", "regione": "Lombardia", "stato": "Italia", "codice_stato": "IT"}, {"comune": "Albano Vercellese", "codice_belfiore": "A130", "zona_climatica": null, "altitudine": null, "gradi_giorno": null, "lat": 45.425307, "lng": 8.380994, "abitanti": "304", "provincia": "Vercelli", "codice_provincia": "VC", "regione": "Piemonte", "stato": "Italia", "codice_stato": "IT"}, {"comune": "Albaredo Arnaboldi", "codice_belfiore": "A134", "zona_climatica": null, "altitudine": null, "gradi_giorno": null, "lat": 45.115325, "lng": 9.247959, "abitanti": "234", "provincia": "Pavia", "codice_provincia": "PV", "regione": "Lombardia", "stato": "Italia", "codice_stato": "IT"}, {"comune": "Albaredo d'Adige", "codice_belfiore": "A137", "zona_climatica": null, "altitudine": null, "gradi_giorno": null, "lat": 45.317046, "lng": 11.274488, "abitanti": "5209", "provincia": "Verona", "codice_provincia": "VR", "regione": "Veneto", "stato": "Italia", "codice_stato": "IT"}, {"comune": "Albaredo per San Marco", "codice_belfiore": "A135", "zona_climatica": null, "altitudine": null, "gradi_giorno": null, "lat": 46.10349, "lng": 9.590044, "abitanti": "286", "provincia": "Sondrio", "codice_provincia": "SO", "regione": "Lombardia", "stato": "Italia", "codice_stato": "IT"}, {"comune": "Albareto", "codice_belfiore": "A138", "zona_climatica": null, "altitudine": null, "gradi_giorno": null, "lat": 44.446551, "lng": 9.699977, "abitanti": "2107", "provincia": "Parma", "codice_provincia": "PR", "regione": "Emilia-Romagna", "stato": "Italia", "codice_stato": "IT"}, {"comune": "Albaretto della Torre", "codice_belfiore": "A139", "zona_climatica": null, "altitudine": null, "gradi_giorno": null, "lat": 44.595911, "lng": 8.064064, "abitanti": "235", "provincia": "Cuneo", "codice_provincia": "CN", "regione": "Piemonte", "stato": "Italia", "codice_stato": "IT"}, {"comune": "Albavilla", "codice_belfiore": "A143", "zona_climatica": null, "altitudine": null, "gradi_giorno": null, "lat": 45.803117, "lng": 9.188483, "abitanti": "6362", "provincia": "Como", "codice_provincia": "CO", "regione": "Lombardia", "stato": "Italia", "codice_stato": "IT"}, {"comune": "Albenga", "codice_belfiore": "A145", "zona_climatica": null, "altitudine": null, "gradi_giorno": null, "lat": 44.04925, "lng": 8.213124, "abitanti": "23304", "provincia": "Savona", "codice_provincia": "SV", "regione": "Liguria", "stato": "Italia", "codice_stato": "IT"}, {"comune": "Albera Ligure", "codice_belfiore": "A146", "zona_climatica": null, "altitudine": null, "gradi_giorno": null, "lat": 44.702351, "lng": 9.066158, "abitanti": "296", "provincia": "Alessandria", "codice_provincia": "AL", "regione": "Piemonte", "stato": "Italia", "codice_stato": "IT"}, {"comune": "Alberobello", "codice_belfiore": "A149", "zona_climatica": null, "altitudine": null, "gradi_giorno": null, "lat": 40.784124, "lng": 17.237703, "abitanti": "10482", "provincia": "Bari", "codice_provincia": "BA", "regione": "Puglia", "stato": "Italia", "codice_stato": "IT"}, {"comune": "Alberona", "codice_belfiore": "A150", "zona_climatica": null, "altitudine": null, "gradi_giorno": null, "lat": 41.432728, "lng": 15.123042, "abitanti": "862", "provincia": "Foggia", "codice_provincia": "FG", "regione": "Puglia", "stato": "Italia", "codice_stato": "IT"}, {"comune": "Albese con Cassano", "codice_belfiore": "A153", "zona_climatica": null, "altitudine": null, "gradi_giorno": null, "lat": 45.797299, "lng": 9.168256, "abitanti": "4130", "provincia": "Como", "codice_provincia": "CO", "regione": "Lombardia", "stato": "Italia", "codice_stato": "IT"}, {"comune": "Albettone", "codice_belfiore": "A154", "zona_climatica": null, "altitudine": null, "gradi_giorno": null, "lat": 45.35815, "lng": 11.581474, "abitanti": "1975", "provincia": "Vicenza", "codice_provincia": "VI", "regione": "Veneto", "stato": "Italia", "codice_stato": "IT"}, {"comune": "Albi", "codice_belfiore": "A155", "zona_climatica": null, "altitudine": null, "gradi_giorno": null, "lat": 39.02499, "lng": 16.596404, "abitanti": "848", "provincia": "Catanzaro", "codice_provincia": "CZ", "regione": "Calabria", "stato": "Italia", "codice_stato": "IT"}, {"comune": "Albiano", "codice_belfiore": "A158", "zona_climatica": null, "altitudine": null, "gradi_giorno": null, "lat": 46.144906, "lng": 11.193479, "abitanti": "1511", "provincia": "Trento", "codice_provincia": "TN", "regione": "Trentino-Alto Adige/Südtirol", "stato": "Italia", "codice_stato": "IT"}, {"comune": "Albiano d'Ivrea", "codice_belfiore": "A157", "zona_climatica": null, "altitudine": null, "gradi_giorno": null, "lat": 45.432959, "lng": 7.950621, "abitanti": "1650", "provincia": "Torino", "codice_provincia": "TO", "regione": "Piemonte", "stato": "Italia", "codice_stato": "IT"}, {"comune": "Albiate", "codice_belfiore": "A159", "zona_climatica": null, "altitudine": null, "gradi_giorno": null, "lat": 45.65899, "lng": 9.255796, "abitanti": "6428", "provincia": "Monza e della Brianza", "codice_provincia": "MB", "regione": "Lombardia", "stato": "Italia", "codice_stato": "IT"}, {"comune": "Albidona", "codice_belfiore": "A160", "zona_climatica": null, "altitudine": null, "gradi_giorno": null, "lat": 39.924121, "lng": 16.469869, "abitanti": "1222", "provincia": "Cosenza", "codice_provincia": "CS", "regione": "Calabria", "stato": "Italia", "codice_stato": "IT"}, {"comune": "Albignasego", "codice_belfiore": "A161", "zona_climatica": null, "altitudine": null, "gradi_giorno": null, "lat": 45.347492, "lng": 11.867209, "abitanti": "25931", "provincia": "Padova", "codice_provincia": "PD", "regione": "Veneto", "stato": "Italia", "codice_stato": "IT"}, {"comune": "Albinea", "codice_belfiore": "A162", "zona_climatica": null, "altitudine": null, "gradi_giorno": null, "lat": 44.620182, "lng": 10.601926, "abitanti": "8773", "provincia": "Reggio nell'Emilia", "codice_provincia": "RE", "regione": "Emilia-Romagna", "stato": "Italia", "codice_stato": "IT"}, {"comune": "Albino", "codice_belfiore": "A163", "zona_climatica": null, "altitudine": null, "gradi_giorno": null, "lat": 45.760814, "lng": 9.79683, "abitanti": "17529", "provincia": "Bergamo", "codice_provincia": "BG", "regione": "Lombardia", "stato": "Italia", "codice_stato": "IT"}, {"comune": "Albiolo", "codice_belfiore": "A164", "zona_climatica": null, "altitudine": null, "gradi_giorno": null, "lat": 45.805577, "lng": 8.939235, "abitanti": "2683", "provincia": "Como", "codice_provincia": "CO", "regione": "Lombardia", "stato": "Italia", "codice_stato": "IT"}, {"comune": "Albisola Superiore", "codice_belfiore": "A166", "zona_climatica": null, "altitudine": null, "gradi_giorno": null, "lat": 44.339838, "lng": 8.509353, "abitanti": "9622", "provincia": "Savona", "codice_provincia": "SV", "regione": "Liguria", "stato": "Italia", "codice_stato": "IT"}, {"comune": "Albissola Marina", "codice_belfiore": "A165", "zona_climatica": null, "altitudine": null, "gradi_giorno": null, "lat": 44.327279, "lng": 8.503102, "abitanti": "5251", "provincia": "Savona", "codice_provincia": "SV", "regione": "Liguria", "stato": "Italia", "codice_stato": "IT"}, {"comune": "Albizzate", "codice_belfiore": "A167", "zona_climatica": null, "altitudine": null, "gradi_giorno": null, "lat": 45.723943, "lng": 8.803131, "abitanti": "5217", "provincia": "Varese", "codice_provincia": "VA", "regione": "Lombardia", "stato": "Italia", "codice_stato": "IT"}, {"comune": "Albonese", "codice_belfiore": "A171", "zona_climatica": null, "altitudine": null, "gradi_giorno": null, "lat": 45.294438, "lng": 8.706322, "abitanti": "508", "provincia": "Pavia", "codice_provincia": "PV", "regione": "Lombardia", "stato": "Italia", "codice_stato": "IT"}, {"comune": "Albosaggia", "codice_belfiore": "A172", "zona_climatica": null, "altitudine": null, "gradi_giorno": null, "lat": 46.147232, "lng": 9.85317, "abitanti": "3037", "provincia": "Sondrio", "codice_provincia": "SO", "regione": "Lombardia", "stato": "Italia", "codice_stato": "IT"}, {"comune": "Albugnano", "codice_belfiore": "A173", "zona_climatica": null, "altitudine": null, "gradi_giorno": null, "lat": 45.077966, "lng": 7.971154, "abitanti": "492", "provincia": "Asti", "codice_provincia": "AT", "regione": "Piemonte", "stato": "Italia", "codice_stato": "IT"}, {"comune": "Albuzzano", "codice_belfiore": "A175", "zona_climatica": null, "altitudine": null, "gradi_giorno": null, "lat": 45.186626, "lng": 9.27504, "abitanti": "3555", "provincia": "Pavia", "codice_provincia": "PV", "regione": "Lombardia", "stato": "Italia", "codice_stato": "IT"}, {"comune": "Alcamo", "codice_belfiore": "A176", "zona_climatica": null, "altitudine": null, "gradi_giorno": null, "lat": 37.97665, "lng": 12.962674, "abitanti": "44857", "provincia": "Trapani", "codice_provincia": "TP", "regione": "Sicilia", "stato": "Italia", "codice_stato": "IT"}, {"comune": "Alcara li Fusi", "codice_belfiore": "A177", "zona_climatica": null, "altitudine": null, "gradi_giorno": null, "lat": 38.021318, "lng": 14.701396, "abitanti": "1792", "provincia": "Messina", "codice_provincia": "ME", "regione": "Sicilia", "stato": "Italia", "codice_stato": "IT"}, {"comune": "Aldeno", "codice_belfiore": "A178", "zona_climatica": null, "altitudine": null, "gradi_giorno": null, "lat": 45.97678, "lng": 11.090857, "abitanti": "3212", "provincia": "Trento", "codice_provincia": "TN", "regione": "Trentino-Alto Adige/Südtirol", "stato": "Italia", "codice_stato": "IT"}, {"comune": "Aldino", "codice_belfiore": "A179", "zona_climatica": null, "altitudine": null, "gradi_giorno": null, "lat": 46.368675, "lng": 11.354324, "abitanti": "1669", "provincia": "Bolzano/Bozen", "codice_provincia": "BZ", "regione": "Trentino-Alto Adige/Südtirol", "stato": "Italia", "codice_stato": "IT"}, {"comune": "Ales", "codice_belfiore": "A180", "zona_climatica": null, "altitudine": null, "gradi_giorno": null, "lat": 39.768245, "lng": 8.815632, "abitanti": "1345", "provincia": "Oristano", "codice_provincia": "OR", "regione": "Sardegna", "stato": "Italia", "codice_stato": "IT"}, {"comune": "Alessandria", "codice_belfiore": "A182", "zona_climatica": null, "altitudine": null, "gradi_giorno": null, "lat": 44.834953, "lng": 8.74503, "abitanti": "92104", "provincia": "Alessandria", "codice_provincia": "AL", "regione": "Piemonte", "stato": "Italia", "codice_stato": "IT"}, {"comune": "Alessandria del Carretto", "codice_belfiore": "A183", "zona_climatica": null, "altitudine": null, "gradi_giorno": null, "lat": 39.958107, "lng": 16.379488, "abitanti": "375", "provincia": "Cosenza", "codice_provincia": "CS", "regione": "Calabria", "stato": "Italia", "codice_stato": "IT"}, {"comune": "Alessandria della Rocca", "codice_belfiore": "A181", "zona_climatica": null, "altitudine": null, "gradi_giorno": null, "lat": 37.570042, "lng": 13.454609, "abitanti": "2628", "provincia": "Agrigento", "codice_provincia": "AG", "regione": "Sicilia", "stato": "Italia", "codice_stato": "IT"}, {"comune": "Alessano", "codice_belfiore": "A184", "zona_climatica": null, "altitudine": null, "gradi_giorno": null, "lat": 39.889678, "lng": 18.331208, "abitanti": "6170", "provincia": "Lecce", "codice_provincia": "LE", "regione": "Puglia", "stato": "Italia", "codice_stato": "IT"}, {"comune": "Alezio", "codice_belfiore": "A185", "zona_climatica": null, "altitudine": null, "gradi_giorno": null, "lat": 40.061321, "lng": 18.058224, "abitanti": "5651", "provincia": "Lecce", "codice_provincia": "LE", "regione": "Puglia", "stato": "Italia", "codice_stato": "IT"}, {"comune": "Alfano", "codice_belfiore": "A186", "zona_climatica": null, "altitudine": null, "gradi_giorno": null, "lat": 40.177505, "lng": 15.425165, "abitanti": "939", "provincia": "Salerno", "codice_provincia": "SA", "regione": "Campania", "stato": "Italia", "codice_stato": "IT"}, {"comune": "Alfedena", "codice_belfiore": "A187", "zona_climatica": null, "altitudine": null, "gradi_giorno": null, "lat": 41.733938, "lng": 14.034394, "abitanti": "935", "provincia": "L'Aquila", "codice_provincia": "AQ", "regione": "Abruzzo", "stato": "Italia", "codice_stato": "IT"}, {"comune": "Alfianello", "codice_belfiore": "A188", "zona_climatica": null, "altitudine": null, "gradi_giorno": null, "lat": 45.266975, "lng": 10.148172, "abitanti": "2388", "provincia": "Brescia", "codice_provincia": "BS", "regione": "Lombardia", "stato": "Italia", "codice_stato": "IT"}, {"comune": "Alfiano Natta", "codice_belfiore": "A189", "zona_climatica": null, "altitudine": null, "gradi_giorno": null, "lat": 45.048552, "lng": 8.208334, "abitanti": "739", "provincia": "Alessandria", "codice_provincia": "AL", "regione": "Piemonte", "stato": "Italia", "codice_stato": "IT"}, {"comune": "Alfonsine", "codice_belfiore": "A191", "zona_climatica": null, "altitudine": null, "gradi_giorno": null, "lat": 44.505385, "lng": 12.04118, "abitanti": "11567", "provincia": "Ravenna", "codice_provincia": "RA", "regione": "Emilia-Romagna", "stato": "Italia", "codice_stato": "IT"}, {"comune": "Alghero", "codice_belfiore": "A192", "zona_climatica": null, "altitudine": null, "gradi_giorno": null, "lat": 40.56002, "lng": 8.315147, "abitanti": "42295", "provincia": "Sassari", "codice_provincia": "SS", "regione": "Sardegna", "stato": "Italia", "codice_stato": "IT"}, {"comune": "Algua", "codice_belfiore": "A193", "zona_climatica": null, "altitudine": null, "gradi_giorno": null, "lat": 45.826185, "lng": 9.722152, "abitanti": "657", "provincia": "Bergamo", "codice_provincia": "BG", "regione": "Lombardia", "stato": "Italia", "codice_stato": "IT"}, {"comune": "Alia", "codice_belfiore": "A195", "zona_climatica": null, "altitudine": null, "gradi_giorno": null, "lat": 37.779948, "lng": 13.713856, "abitanti": "3403", "provincia": "Palermo", "codice_provincia": "PA", "regione": "Sicilia", "stato": "Italia", "codice_stato": "IT"}, {"comune": "Aliano", "codice_belfiore": "A196", "zona_climatica": null, "altitudine": null, "gradi_giorno": null, "lat": 40.313827, "lng": 16.229961, "abitanti": "889", "provincia": "Matera", "codice_provincia": "MT", "regione": "Basilicata", "stato": "Italia", "codice_stato": "IT"}, {"comune": "Alice Bel Colle", "codice_belfiore": "A197", "zona_climatica": null, "altitudine": null, "gradi_giorno": null, "lat": 44.726046, "lng": 8.450745, "abitanti": "727", "provincia": "Alessandria", "codice_provincia": "AL", "regione": "Piemonte", "stato": "Italia", "codice_stato": "IT"}, {"comune": "Alice Castello", "codice_belfiore": "A198", "zona_climatica": null, "altitudine": null, "gradi_giorno": null, "lat": 45.365158, "lng": 8.072925, "abitanti": "2527", "provincia": "Vercelli", "codice_provincia": "VC", "regione": "Piemonte", "stato": "Italia", "codice_stato": "IT"}, {"comune": "Alife", "codice_belfiore": "A200", "zona_climatica": null, "altitudine": null, "gradi_giorno": null, "lat": 41.32612, "lng": 14.334026, "abitanti": "7416", "provincia": "Caserta", "codice_provincia": "CE", "regione": "Campania", "stato": "Italia", "codice_stato": "IT"}, {"comune": "Alimena", "codice_belfiore": "A202", "zona_climatica": null, "altitudine": null, "gradi_giorno": null, "lat": 37.693476, "lng": 14.114651, "abitanti": "1871", "provincia": "Palermo", "codice_provincia": "PA", "regione": "Sicilia", "stato": "Italia", "codice_stato": "IT"}, {"comune": "Aliminusa", "codice_belfiore": "A203", "zona_climatica": null, "altitudine": null, "gradi_giorno": null, "lat": 37.864509, "lng": 13.78116, "abitanti": "1105", "provincia": "Palermo", "codice_provincia": "PA", "regione": "Sicilia", "stato": "Italia", "codice_stato": "IT"}, {"comune": "Allai", "codice_belfiore": "A204", "zona_climatica": null, "altitudine": null, "gradi_giorno": null, "lat": 39.957173, "lng": 8.863076, "abitanti": "345", "provincia": "Oristano", "codice_provincia": "OR", "regione": "Sardegna", "stato": "Italia", "codice_stato": "IT"}, {"comune": "Alleghe", "codice_belfiore": "A206", "zona_climatica": null, "altitudine": null, "gradi_giorno": null, "lat": 46.406637, "lng": 12.021464, "abitanti": "1151", "provincia": "Belluno", "codice_provincia": "BL", "regione": "Veneto", "stato": "Italia", "codice_stato": "IT"}, {"comune": "Allein", "codice_belfiore": "A205", "zona_climatica": null, "altitudine": null, "gradi_giorno": null, "lat": 45.807839, "lng": 7.272512, "abitanti": "209", "provincia": "Valle d'Aosta/Vallée d'Aoste", "codice_provincia": "AO", "regione": "Valle d'Aosta/Vallée d'Aoste", "stato": "Italia", "codice_stato": "IT"}, {"comune": "Allerona", "codice_belfiore": "A207", "zona_climatica": null, "altitudine": null, "gradi_giorno": null, "lat": 42.812033, "lng": 11.973053, "abitanti": "1701", "provincia": "Terni", "codice_provincia": "TR", "regione": "Umbria", "stato": "Italia", "codice_stato": "IT"}, {"comune": "Alliste", "codice_belfiore": "A208", "zona_climatica": null, "altitudine": null, "gradi_giorno": null, "lat": 39.948618, "lng": 18.088826, "abitanti": "6513", "provincia": "Lecce", "codice_provincia": "LE", "regione": "Puglia", "stato": "Italia", "codice_stato": "IT"}, {"comune": "Allumiere", "codice_belfiore": "A210", "zona_climatica": null, "altitudine": null, "gradi_giorno": null, "lat": 42.156218, "lng": 11.903832, "abitanti": "3823", "provincia": "Roma", "codice_provincia": "RM", "regione": "Lazio", "stato": "Italia", "codice_stato": "IT"}, {"comune": "Alluvioni Piovera", "codice_belfiore": "M397", "zona_climatica": null, "altitudine": null, "gradi_giorno": null, "lat": 44.982464, "lng": 8.752398, "abitanti": "1663", "provincia": "Alessandria", "codice_provincia": "AL", "regione": "Piemonte", "stato": "Italia", "codice_stato": "IT"}, {"comune": "Almenno San Bartolomeo", "codice_belfiore": "A216", "zona_climatica": null, "altitudine": null, "gradi_giorno": null, "lat": 45.742681, "lng": 9.582251, "abitanti": "6452", "provincia": "Bergamo", "codice_provincia": "BG", "regione": "Lombardia", "stato": "Italia", "codice_stato": "IT"}, {"comune": "Almenno San Salvatore", "codice_belfiore": "A217", "zona_climatica": null, "altitudine": null, "gradi_giorno": null, "lat": 45.749956, "lng": 9.596368, "abitanti": "5606", "provincia": "Bergamo", "codice_provincia": "BG", "regione": "Lombardia", "stato": "Italia", "codice_stato": "IT"}, {"comune": "Almese", "codice_belfiore": "A218", "zona_climatica": null, "altitudine": null, "gradi_giorno": null, "lat": 45.116876, "lng": 7.39455, "abitanti": "6448", "provincia": "Torino", "codice_provincia": "TO", "regione": "Piemonte", "stato": "Italia", "codice_stato": "IT"}, {"comune": "Almè", "codice_belfiore": "A214", "zona_climatica": null, "altitudine": null, "gradi_giorno": null, "lat": 45.73701, "lng": 9.614785, "abitanti": "5486", "provincia": "Bergamo", "codice_provincia": "BG", "regione": "Lombardia", "stato": "Italia", "codice_stato": "IT"}, {"comune": "Alonte", "codice_belfiore": "A220", "zona_climatica": null, "altitudine": null, "gradi_giorno": null, "lat": 45.365037, "lng": 11.427363, "abitanti": "1580", "provincia": "Vicenza", "codice_provincia": "VI", "regione": "Veneto", "stato": "Italia", "codice_stato": "IT"}, {"comune": "Alpago", "codice_belfiore": "M375", "zona_climatica": null, "altitudine": null, "gradi_giorno": null, "lat": 46.130668, "lng": 12.354894, "abitanti": "6727", "provincia": "Belluno", "codice_provincia": "BL", "regione": "Veneto", "stato": "Italia", "codice_stato": "IT"}, {"comune": "Alpette", "codice_belfiore": "A221", "zona_climatica": null, "altitudine": null, "gradi_giorno": null, "lat": 45.408916, "lng": 7.578978, "abitanti": "238", "provincia": "Torino", "codice_provincia": "TO", "regione": "Piemonte", "stato": "Italia", "codice_stato": "IT"}, {"comune": "Alpignano", "codice_belfiore": "A222", "zona_climatica": null, "altitudine": null, "gradi_giorno": null, "lat": 45.095724, "lng": 7.525403, "abitanti": "16732", "provincia": "Torino", "codice_provincia": "TO", "regione": "Piemonte", "stato": "Italia", "codice_stato": "IT"}, {"comune": "Alseno", "codice_belfiore": "A223", "zona_climatica": null, "altitudine": null, "gradi_giorno": null, "lat": 44.898364, "lng": 9.961374, "abitanti": "4640", "provincia": "Piacenza", "codice_provincia": "PC", "regione": "Emilia-Romagna", "stato": "Italia", "codice_stato": "IT"}, {"comune": "Alserio", "codice_belfiore": "A224", "zona_climatica": null, "altitudine": null, "gradi_giorno": null, "lat": 45.779103, "lng": 9.199529, "abitanti": "1267", "provincia": "Como", "codice_provincia": "CO", "regione": "Lombardia", "stato": "Italia", "codice_stato": "IT"}, {"comune": "Alta Val Tidone", "codice_belfiore": "M386", "zona_climatica": null, "altitudine": null, "gradi_giorno": null, "lat": 44.919977, "lng": 9.347182, "abitanti": "2952", "provincia": "Piacenza", "codice_provincia": "PC", "regione": "Emilia-Romagna", "stato": "Italia", "codice_stato": "IT"}, {"comune": "Alta Valle Intelvi", "codice_belfiore": "M383", "zona_climatica": null, "altitudine": null, "gradi_giorno": null, "lat": 45.980864, "lng": 9.041875, "abitanti": "2978", "provincia": "Como", "codice_provincia": "CO", "regione": "Lombardia", "stato": "Italia", "codice_stato": "IT"}, {"comune": "Altamura", "codice_belfiore": "A225", "zona_climatica": null, "altitudine": null, "gradi_giorno": null, "lat": 40.82856, "lng": 16.552731, "abitanti": "69818", "provincia": "Bari", "codice_provincia": "BA", "regione": "Puglia", "stato": "Italia", "codice_stato": "IT"}, {"comune": "Altare", "codice_belfiore": "A226", "zona_climatica": null, "altitudine": null, "gradi_giorno": null, "lat": 44.335982, "lng": 8.339931, "abitanti": "1968", "provincia": "Savona", "codice_provincia": "SV", "regione": "Liguria", "stato": "Italia", "codice_stato": "IT"}, {"comune": "Altavalle", "codice_belfiore": "M349", "zona_climatica": null, "altitudine": null, "gradi_giorno": null, "lat": 46.216653, "lng": 11.25295, "abitanti": "1621", "provincia": "Trento", "codice_provincia": "TN", "regione": "Trentino-Alto Adige/Südtirol", "stato": "Italia", "codice_stato": "IT"}, {"comune": "Altavilla Irpina", "codice_belfiore": "A228", "zona_climatica": null, "altitudine": null, "gradi_giorno": null, "lat": 41.00616, "lng": 14.777679, "abitanti": "4064", "provincia": "Avellino", "codice_provincia": "AV", "regione": "Campania", "stato": "Italia", "codice_stato": "IT"}, {"comune": "Altavilla Milicia", "codice_belfiore": "A229", "zona_climatica": null, "altitudine": null, "gradi_giorno": null, "lat": 38.042734, "lng": 13.550893, "abitanti": "8452", "provincia": "Palermo", "codice_provincia": "PA", "regione": "Sicilia", "stato": "Italia", "codice_stato": "IT"}, {"comune": "Altavilla Monferrato", "codice_belfiore": "A227", "zona_climatica": null, "altitudine": null, "gradi_giorno": null, "lat": 44.993552, "lng": 8.375938, "abitanti": "412", "provincia": "Alessandria", "codice_provincia": "AL", "regione": "Piemonte", "stato": "Italia", "codice_stato": "IT"}, {"comune": "Altavilla Silentina", "codice_belfiore": "A230", "zona_climatica": null, "altitudine": null, "gradi_giorno": null, "lat": 40.530241, "lng": 15.131031, "abitanti": "6969", "provincia": "Salerno", "codice_provincia": "SA", "regione": "Campania", "stato": "Italia", "codice_stato": "IT"}, {"comune": "Altavilla Vicentina", "codice_belfiore": "A231", "zona_climatica": null, "altitudine": null, "gradi_giorno": null, "lat": 45.508429, "lng": 11.470686, "abitanti": "11810", "provincia": "Vicenza", "codice_provincia": "VI", "regione": "Veneto", "stato": "Italia", "codice_stato": "IT"}, {"comune": "Altidona", "codice_belfiore": "A233", "zona_climatica": null, "altitudine": null, "gradi_giorno": null, "lat": 43.109225, "lng": 13.799878, "abitanti": "3509", "provincia": "Fermo", "codice_provincia": "FM", "regione": "Marche", "stato": "Italia", "codice_stato": "IT"}, {"comune": "Altilia", "codice_belfiore": "A234", "zona_climatica": null, "altitudine": null, "gradi_giorno": null, "lat": 39.13049, "lng": 16.252695, "abitanti": "667", "provincia": "Cosenza", "codice_provincia": "CS", "regione": "Calabria", "stato": "Italia", "codice_stato": "IT"}, {"comune": "Altino", "codice_belfiore": "A235", "zona_climatica": null, "altitudine": null, "gradi_giorno": null, "lat": 42.099337, "lng": 14.331615, "abitanti": "3089", "provincia": "Chieti", "codice_provincia": "CH", "regione": "Abruzzo", "stato": "Italia", "codice_stato": "IT"}, {"comune": "Altissimo", "codice_belfiore": "A236", "zona_climatica": null, "altitudine": null, "gradi_giorno": null, "lat": 45.614739, "lng": 11.251258, "abitanti": "2144", "provincia": "Vicenza", "codice_provincia": "VI", "regione": "Veneto", "stato": "Italia", "codice_stato": "IT"}, {"comune": "Altivole", "codice_belfiore": "A237", "zona_climatica": null, "altitudine": null, "gradi_giorno": null, "lat": 45.754003, "lng": 11.955362, "abitanti": "6956", "provincia": "Treviso", "codice_provincia": "TV", "regione": "Veneto", "stato": "Italia", "codice_stato": "IT"}, {"comune": "Alto", "codice_belfiore": "A238", "zona_climatica": null, "altitudine": null, "gradi_giorno": null, "lat": 44.108946, "lng": 8.003074, "abitanti": "139", "provincia": "Cuneo", "codice_provincia": "CN", "regione": "Piemonte", "stato": "Italia", "codice_stato": "IT"}, {"comune": "Alto Reno Terme", "codice_belfiore": "M369", "zona_climatica": null, "altitudine": null, "gradi_giorno": null, "lat": 44.123954, "lng": 10.937306, "abitanti": "6933", "provincia": "Bologna", "codice_provincia": "BO", "regione": "Emilia-Romagna", "stato": "Italia", "codice_stato": "IT"}, {"comune": "Alto Sermenza", "codice_belfiore": "M389", "zona_climatica": null, "altitudine": null, "gradi_giorno": null, "lat": 45.872658, "lng": 8.038157, "abitanti": "147", "provincia": "Vercelli", "codice_provincia": "VC", "regione": "Piemonte", "stato": "Italia", "codice_stato": "IT"}, {"comune": "Altofonte", "codice_belfiore": "A239", "zona_climatica": null, "altitudine": null, "gradi_giorno": null, "lat": 38.044567, "lng": 13.298702, "abitanti": "9835", "provincia": "Palermo", "codice_provincia": "PA", "regione": "Sicilia", "stato": "Italia", "codice_stato": "IT"}, {"comune": "Altomonte", "codice_belfiore": "A240", "zona_climatica": null, "altitudine": null, "gradi_giorno": null, "lat": 39.697882, "lng": 16.127128, "abitanti": "4151", "provincia": "Cosenza", "codice_provincia": "CS", "regione": "Calabria", "stato": "Italia", "codice_stato": "IT"}, {"comune": "Altopascio", "codice_belfiore": "A241", "zona_climatica": null, "altitudine": null, "gradi_giorno": null, "lat": 43.815041, "lng": 10.674396, "abitanti": "15529", "provincia": "Lucca", "codice_provincia": "LU", "regione": "Toscana", "stato": "Italia", "codice_stato": "IT"}, {"comune": "Altopiano della Vigolana", "codice_belfiore": "M350", "zona_climatica": null, "altitudine": null, "gradi_giorno": null, "lat": 45.984533, "lng": 11.199754, "abitanti": "5137", "provincia": "Trento", "codice_provincia": "TN", "regione": "Trentino-Alto Adige/Südtirol", "stato": "Italia", "codice_stato": "IT"}, {"comune": "Alviano", "codice_belfiore": "A242", "zona_climatica": null, "altitudine": null, "gradi_giorno": null, "lat": 42.588208, "lng": 12.295936, "abitanti": "1414", "provincia": "Terni", "codice_provincia": "TR", "regione": "Umbria", "stato": "Italia", "codice_stato": "IT"}, {"comune": "Alvignano", "codice_belfiore": "A243", "zona_climatica": null, "altitudine": null, "gradi_giorno": null, "lat": 41.219342, "lng": 14.352737, "abitanti": "4660", "provincia": "Caserta", "codice_provincia": "CE", "regione": "Campania", "stato": "Italia", "codice_stato": "IT"}, {"comune": "Alvito", "codice_belfiore": "A244", "zona_climatica": null, "altitudine": null, "gradi_giorno": null, "lat": 41.688464, "lng": 13.743264, "abitanti": "2533", "provincia": "Frosinone", "codice_provincia": "FR", "regione": "Lazio", "stato": "Italia", "codice_stato": "IT"}, {"comune": "Alzano Lombardo", "codice_belfiore": "A246", "zona_climatica": null, "altitudine": null, "gradi_giorno": null, "lat": 45.733603, "lng": 9.730494, "abitanti": "13370", "provincia": "Bergamo", "codice_provincia": "BG", "regione": "Lombardia", "stato": "Italia", "codice_stato": "IT"}, {"comune": "Alzano Scrivia", "codice_belfiore": "A245", "zona_climatica": null, "altitudine": null, "gradi_giorno": null, "lat": 45.018057, "lng": 8.880649, "abitanti": "352", "provincia": "Alessandria", "codice_provincia": "AL", "regione": "Piemonte", "stato": "Italia", "codice_stato": "IT"}, {"comune": "Alzate Brianza", "codice_belfiore": "A249", "zona_climatica": null, "altitudine": null, "gradi_giorno": null, "lat": 45.769778, "lng": 9.182041, "abitanti": "4794", "provincia": "Como", "codice_provincia": "CO", "regione": "Lombardia", "stato": "Italia", "codice_stato": "IT"}, {"comune": "Alà dei Sardi", "codice_belfiore": "A115", "zona_climatica": null, "altitudine": null, "gradi_giorno": null, "lat": 40.650066, "lng": 9.327829, "abitanti": "1812", "provincia": "Sassari", "codice_provincia": "SS", "regione": "Sardegna", "stato": "Italia", "codice_stato": "IT"}, {"comune": "Alì", "codice_belfiore": "A194", "zona_climatica": null, "altitudine": null, "gradi_giorno": null, "lat": 38.027364, "lng": 15.417689, "abitanti": "694", "provincia": "Messina", "codice_provincia": "ME", "regione": "Sicilia", "stato": "Italia", "codice_stato": "IT"}, {"comune": "Alì Terme", "codice_belfiore": "A201", "zona_climatica": null, "altitudine": null, "gradi_giorno": null, "lat": 38.005064, "lng": 15.42269, "abitanti": "2386", "provincia": "Messina", "codice_provincia": "ME", "regione": "Sicilia", "stato": "Italia", "codice_stato": "IT"}, {"comune": "Amalfi", "codice_belfiore": "A251", "zona_climatica": null, "altitudine": null, "gradi_giorno": null, "lat": 40.63367, "lng": 14.60261, "abitanti": "4876", "provincia": "Salerno", "codice_provincia": "SA", "regione": "Campania", "stato": "Italia", "codice_stato": "IT"}, {"comune": "Amandola", "codice_belfiore": "A252", "zona_climatica": null, "altitudine": null, "gradi_giorno": null, "lat": 42.979965, "lng": 13.356085, "abitanti": "3367", "provincia": "Fermo", "codice_provincia": "FM", "regione": "Marche", "stato": "Italia", "codice_stato": "IT"}, {"comune": "Amantea", "codice_belfiore": "A253", "zona_climatica": null, "altitudine": null, "gradi_giorno": null, "lat": 39.133189, "lng": 16.074591, "abitanti": "13858", "provincia": "Cosenza", "codice_provincia": "CS", "regione": "Calabria", "stato": "Italia", "codice_stato": "IT"}, {"comune": "Amaro", "codice_belfiore": "A254", "zona_climatica": null, "altitudine": null, "gradi_giorno": null, "lat": 46.374031, "lng": 13.09536, "abitanti": "847", "provincia": "Udine", "codice_provincia": "UD", "regione": "Friuli-Venezia Giulia", "stato": "Italia", "codice_stato": "IT"}, {"comune": "Amaroni", "codice_belfiore": "A255", "zona_climatica": null, "altitudine": null, "gradi_giorno": null, "lat": 38.793085, "lng": 16.448103, "abitanti": "1708", "provincia": "Catanzaro", "codice_provincia": "CZ", "regione": "Calabria", "stato": "Italia", "codice_stato": "IT"}, {"comune": "Amaseno", "codice_belfiore": "A256", "zona_climatica": null, "altitudine": null, "gradi_giorno": null, "lat": 41.467815, "lng": 13.336002, "abitanti": "4215", "provincia": "Frosinone", "codice_provincia": "FR", "regione": "Lazio", "stato": "Italia", "codice_stato": "IT"}, {"comune": "Amato", "codice_belfiore": "A257", "zona_climatica": null, "altitudine": null, "gradi_giorno": null, "lat": 38.941788, "lng": 16.462202, "abitanti": "769", "provincia": "Catanzaro", "codice_provincia": "CZ", "regione": "Calabria", "stato": "Italia", "codice_stato": "IT"}, {"comune": "Amatrice", "codice_belfiore": "A258", "zona_climatica": null, "altitudine": null, "gradi_giorno": null, "lat": 42.629237, "lng": 13.289176, "abitanti": "2296", "provincia": "Rieti", "codice_provincia": "RI", "regione": "Lazio", "stato": "Italia", "codice_stato": "IT"}, {"comune": "Ambivere", "codice_belfiore": "A259", "zona_climatica": null, "altitudine": null, "gradi_giorno": null, "lat": 45.71958, "lng": 9.55015, "abitanti": "2366", "provincia": "Bergamo", "codice_provincia": "BG", "regione": "Lombardia", "stato": "Italia", "codice_stato": "IT"}, {"comune": "Amblar-Don", "codice_belfiore": "M351", "zona_climatica": null, "altitudine": null, "gradi_giorno": null, "lat": 46.385024, "lng": 11.172159, "abitanti": "548", "provincia": "Trento", "codice_provincia": "TN", "regione": "Trentino-Alto Adige/Südtirol", "stato": "Italia", "codice_stato": "IT"}, {"comune": "Ameglia", "codice_belfiore": "A261", "zona_climatica": null, "altitudine": null, "gradi_giorno": null, "lat": 44.065929, "lng": 9.95741, "abitanti": "4291", "provincia": "La Spezia", "codice_provincia": "SP", "regione": "Liguria", "stato": "Italia", "codice_stato": "IT"}, {"comune": "Amelia", "codice_belfiore": "A262", "zona_climatica": null, "altitudine": null, "gradi_giorno": null, "lat": 42.553528, "lng": 12.416776, "abitanti": "11464", "provincia": "Terni", "codice_provincia": "TR", "regione": "Umbria", "stato": "Italia", "codice_stato": "IT"}, {"comune": "Amendolara", "codice_belfiore": "A263", "zona_climatica": null, "altitudine": null, "gradi_giorno": null, "lat": 39.952438, "lng": 16.582284, "abitanti": "2772", "provincia": "Cosenza", "codice_provincia": "CS", "regione": "Calabria", "stato": "Italia", "codice_stato": "IT"}, {"comune": "Ameno", "codice_belfiore": "A264", "zona_climatica": null, "altitudine": null, "gradi_giorno": null, "lat": 45.788656, "lng": 8.441311, "abitanti": "885", "provincia": "Novara", "codice_provincia": "NO", "regione": "Piemonte", "stato": "Italia", "codice_stato": "IT"}, {"comune": "Amorosi", "codice_belfiore": "A265", "zona_climatica": null, "altitudine": null, "gradi_giorno": null, "lat": 41.202918, "lng": 14.461636, "abitanti": "2690", "provincia": "Benevento", "codice_provincia": "BN", "regione": "Campania", "stato": "Italia", "codice_stato": "IT"}, {"comune": "Ampezzo", "codice_belfiore": "A267", "zona_climatica": null, "altitudine": null, "gradi_giorno": null, "lat": 46.417086, "lng": 12.790274, "abitanti": "942", "provincia": "Udine", "codice_provincia": "UD", "regione": "Friuli-Venezia Giulia", "stato": "Italia", "codice_stato": "IT"}, {"comune": "Anacapri", "codice_belfiore": "A268", "zona_climatica": null, "altitudine": null, "gradi_giorno": null, "lat": 40.55577, "lng": 14.213604, "abitanti": "6944", "provincia": "Napoli", "codice_provincia": "NA", "regione": "Campania", "stato": "Italia", "codice_stato": "IT"}, {"comune": "Anagni", "codice_belfiore": "A269", "zona_climatica": null, "altitudine": null, "gradi_giorno": null, "lat": 41.74472, "lng": 13.152694, "abitanti": "20988", "provincia": "Frosinone", "codice_provincia": "FR", "regione": "Lazio", "stato": "Italia", "codice_stato": "IT"}, {"comune": "Ancarano", "codice_belfiore": "A270", "zona_climatica": null, "altitudine": null, "gradi_giorno": null, "lat": 42.836048, "lng": 13.739392, "abitanti": "1822", "provincia": "Teramo", "codice_provincia": "TE", "regione": "Abruzzo", "stato": "Italia", "codice_stato": "IT"}, {"comune": "Ancona", "codice_belfiore": "A271", "zona_climatica": null, "altitudine": null, "gradi_giorno": null, "lat": 43.48012, "lng": 13.218791, "abitanti": "99108", "provincia": "Ancona", "codice_provincia": "AN", "regione": "Marche", "stato": "Italia", "codice_stato": "IT"}, {"comune": "Andali", "codice_belfiore": "A272", "zona_climatica": null, "altitudine": null, "gradi_giorno": null, "lat": 39.013391, "lng": 16.768407, "abitanti": "673", "provincia": "Catanzaro", "codice_provincia": "CZ", "regione": "Calabria", "stato": "Italia", "codice_stato": "IT"}, {"comune": "Andalo", "codice_belfiore": "A274", "zona_climatica": null, "altitudine": null, "gradi_giorno": null, "lat": 46.166136, "lng": 11.003402, "abitanti": "1133", "provincia": "Trento", "codice_provincia": "TN", "regione": "Trentino-Alto Adige/Südtirol", "stato": "Italia", "codice_stato": "IT"}, {"comune": "Andalo Valtellino", "codice_belfiore": "A273", "zona_climatica": null, "altitudine": null, "gradi_giorno": null, "lat": 46.133822, "lng": 9.473806, "abitanti": "583", "provincia": "Sondrio", "codice_provincia": "SO", "regione": "Lombardia", "stato": "Italia", "codice_stato": "IT"}, {"comune": "Andezeno", "codice_belfiore": "A275", "zona_climatica": null, "altitudine": null, "gradi_giorno": null, "lat": 45.037748, "lng": 7.870527, "abitanti": "2030", "provincia": "Torino", "codice_provincia": "TO", "regione": "Piemonte", "stato": "Italia", "codice_stato": "IT"}, {"comune": "Andora", "codice_belfiore": "A278", "zona_climatica": null, "altitudine": null, "gradi_giorno": null, "lat": 43.951929, "lng": 8.145649, "abitanti": "7289", "provincia": "Savona", "codice_provincia": "SV", "regione": "Liguria", "stato": "Italia", "codice_stato": "IT"}, {"comune": "Andorno Micca", "codice_belfiore": "A280", "zona_climatica": null, "altitudine": null, "gradi_giorno": null, "lat": 45.609264, "lng": 8.05272, "abitanti": "2997", "provincia": "Biella", "codice_provincia": "BI", "regione": "Piemonte", "stato": "Italia", "codice_stato": "IT"}, {"comune": "Andrano", "codice_belfiore": "A281", "zona_climatica": null, "altitudine": null, "gradi_giorno": null, "lat": 39.983019, "lng": 18.382202, "abitanti": "4617", "provincia": "Lecce", "codice_provincia": "LE", "regione": "Puglia", "stato": "Italia", "codice_stato": "IT"}, {"comune": "Andrate", "codice_belfiore": "A282", "zona_climatica": null, "altitudine": null, "gradi_giorno": null, "lat": 45.52736, "lng": 7.880318, "abitanti": "485", "provincia": "Torino", "codice_provincia": "TO", "regione": "Piemonte", "stato": "Italia", "codice_stato": "IT"}, {"comune": "Andreis", "codice_belfiore": "A283", "zona_climatica": null, "altitudine": null, "gradi_giorno": null, "lat": 46.2005, "lng": 12.61367, "abitanti": "268", "provincia": "Pordenone", "codice_provincia": "PN", "regione": "Friuli-Venezia Giulia", "stato": "Italia", "codice_stato": "IT"}, {"comune": "Andretta", "codice_belfiore": "A284", "zona_climatica": null, "altitudine": null, "gradi_giorno": null, "lat": 40.938476, "lng": 15.32775, "abitanti": "1747", "provincia": "Avellino", "codice_provincia": "AV", "regione": "Campania", "stato": "Italia", "codice_stato": "IT"}, {"comune": "Andria", "codice_belfiore": "A285", "zona_climatica": null, "altitudine": null, "gradi_giorno": null, "lat": 41.227646, "lng": 16.295435, "abitanti": "97942", "provincia": "Barletta-Andria-Trani", "codice_provincia": "BT", "regione": "Puglia", "stato": "Italia", "codice_stato": "IT"}, {"comune": "Andriano", "codice_belfiore": "A286", "zona_climatica": null, "altitudine": null, "gradi_giorno": null, "lat": 46.517616, "lng": 11.231373, "abitanti": "1037", "provincia": "Bolzano/Bozen", "codice_provincia": "BZ", "regione": "Trentino-Alto Adige/Südtirol", "stato": "Italia", "codice_stato": "IT"}, {"comune": "Anela", "codice_belfiore": "A287", "zona_climatica": null, "altitudine": null, "gradi_giorno": null, "lat": 40.44176, "lng": 9.057427, "abitanti": "589", "provincia": "Sassari", "codice_provincia": "SS", "regione": "Sardegna", "stato": "Italia", "codice_stato": "IT"}, {"comune": "Anfo", "codice_belfiore": "A288", "zona_climatica": null, "altitudine": null, "gradi_giorno": null, "lat": 45.76639, "lng": 10.493771, "abitanti": "446", "provincia": "Brescia", "codice_provincia": "BS", "regione": "Lombardia", "stato": "Italia", "codice_stato": "IT"}, {"comune": "Angera", "codice_belfiore": "A290", "zona_climatica": null, "altitudine": null, "gradi_giorno": null, "lat": 45.772188, "lng": 8.575122, "abitanti": "5407", "provincia": "Varese", "codice_provincia": "VA", "regione": "Lombardia", "stato": "Italia", "codice_stato": "IT"}, {"comune": "Anghiari", "codice_belfiore": "A291", "zona_climatica": null, "altitudine": null, "gradi_giorno": null, "lat": 43.540966, "lng": 12.054582, "abitanti": "5499", "provincia": "Arezzo", "codice_provincia": "AR", "regione": "Toscana", "stato": "Italia", "codice_stato": "IT"}, {"comune": "Angiari", "codice_belfiore": "A292", "zona_climatica": null, "altitudine": null, "gradi_giorno": null, "lat": 45.218142, "lng": 11.283908, "abitanti": "2382", "provincia": "Verona", "codice_provincia": "VR", "regione": "Veneto", "stato": "Italia", "codice_stato": "IT"}, {"comune": "Angolo Terme", "codice_belfiore": "A293", "zona_climatica": null, "altitudine": null, "gradi_giorno": null, "lat": 45.891036, "lng": 10.146099, "abitanti": "2345", "provincia": "Brescia", "codice_provincia": "BS", "regione": "Lombardia", "stato": "Italia", "codice_stato": "IT"}, {"comune": "Angri", "codice_belfiore": "A294", "zona_climatica": null, "altitudine": null, "gradi_giorno": null, "lat": 40.737659, "lng": 14.572283, "abitanti": "33885", "provincia": "Salerno", "codice_provincia": "SA", "regione": "Campania", "stato": "Italia", "codice_stato": "IT"}, {"comune": "Angrogna", "codice_belfiore": "A295", "zona_climatica": null, "altitudine": null, "gradi_giorno": null, "lat": 44.843582, "lng": 7.223816, "abitanti": "838", "provincia": "Torino", "codice_provincia": "TO", "regione": "Piemonte", "stato": "Italia", "codice_stato": "IT"}, {"comune": "Anguillara Sabazia", "codice_belfiore": "A297", "zona_climatica": null, "altitudine": null, "gradi_giorno": null, "lat": 42.083709, "lng": 12.282982, "abitanti": "19101", "provincia": "Roma", "codice_provincia": "RM", "regione": "Lazio", "stato": "Italia", "codice_stato": "IT"}, {"comune": "Anguillara Veneta", "codice_belfiore": "A296", "zona_climatica": null, "altitudine": null, "gradi_giorno": null, "lat": 45.139355, "lng": 11.887746, "abitanti": "4212", "provincia": "Padova", "codice_provincia": "PD", "regione": "Veneto", "stato": "Italia", "codice_stato": "IT"}, {"comune": "Annicco", "codice_belfiore": "A299", "zona_climatica": null, "altitudine": null, "gradi_giorno": null, "lat": 45.244572, "lng": 9.879466, "abitanti": "1953", "provincia": "Cremona", "codice_provincia": "CR", "regione": "Lombardia", "stato": "Italia", "codice_stato": "IT"}, {"comune": "Annone di Brianza", "codice_belfiore": "A301", "zona_climatica": null, "altitudine": null, "gradi_giorno": null, "lat": 45.807621, "lng": 9.332414, "abitanti": "2283", "provincia": "Lecco", "codice_provincia": "LC", "regione": "Lombardia", "stato": "Italia", "codice_stato": "IT"}, {"comune": "Annone Veneto", "codice_belfiore": "A302", "zona_climatica": null, "altitudine": null, "gradi_giorno": null, "lat": 45.79551, "lng": 12.68422, "abitanti": "3790", "provincia": "Venezia", "codice_provincia": "VE", "regione": "Veneto", "stato": "Italia", "codice_stato": "IT"}, {"comune": "Anoia", "codice_belfiore": "A303", "zona_climatica": null, "altitudine": null, "gradi_giorno": null, "lat": 38.436192, "lng": 16.080633, "abitanti": "2078", "provincia": "Reggio Calabria", "codice_provincia": "RC", "regione": "Calabria", "stato": "Italia", "codice_stato": "IT"}, {"comune": "Antegnate", "codice_belfiore": "A304", "zona_climatica": null, "altitudine": null, "gradi_giorno": null, "lat": 45.486477, "lng": 9.79146, "abitanti": "3144", "provincia": "Bergamo", "codice_provincia": "BG", "regione": "Lombardia", "stato": "Italia", "codice_stato": "IT"}, {"comune": "Anterivo", "codice_belfiore": "A306", "zona_climatica": null, "altitudine": null, "gradi_giorno": null, "lat": 46.279747, "lng": 11.367961, "abitanti": "403", "provincia": "Bolzano/Bozen", "codice_provincia": "BZ", "regione": "Trentino-Alto Adige/Südtirol", "stato": "Italia", "codice_stato": "IT"}, {"comune": "Antey-Saint-André", "codice_belfiore": "A305", "zona_climatica": null, "altitudine": null, "gradi_giorno": null, "lat": 45.806525, "lng": 7.598199, "abitanti": "557", "provincia": "Valle d'Aosta/Vallée d'Aoste", "codice_provincia": "AO", "regione": "Valle d'Aosta/Vallée d'Aoste", "stato": "Italia", "codice_stato": "IT"}, {"comune": "Anticoli Corrado", "codice_belfiore": "A309", "zona_climatica": null, "altitudine": null, "gradi_giorno": null, "lat": 42.009524, "lng": 12.989087, "abitanti": "818", "provincia": "Roma", "codice_provincia": "RM", "regione": "Lazio", "stato": "Italia", "codice_stato": "IT"}, {"comune": "Antignano", "codice_belfiore": "A312", "zona_climatica": null, "altitudine": null, "gradi_giorno": null, "lat": 44.845059, "lng": 8.13484, "abitanti": "966", "provincia": "Asti", "codice_provincia": "AT", "regione": "Piemonte", "stato": "Italia", "codice_stato": "IT"}, {"comune": "Antillo", "codice_belfiore": "A313", "zona_climatica": null, "altitudine": null, "gradi_giorno": null, "lat": 37.977262, "lng": 15.244786, "abitanti": "836", "provincia": "Messina", "codice_provincia": "ME", "regione": "Sicilia", "stato": "Italia", "codice_stato": "IT"}, {"comune": "Antonimina", "codice_belfiore": "A314", "zona_climatica": null, "altitudine": null, "gradi_giorno": null, "lat": 38.272273, "lng": 16.148402, "abitanti": "1210", "provincia": "Reggio Calabria", "codice_provincia": "RC", "regione": "Calabria", "stato": "Italia", "codice_stato": "IT"}, {"comune": "Antrodoco", "codice_belfiore": "A315", "zona_climatica": null, "altitudine": null, "gradi_giorno": null, "lat": 42.416134, "lng": 13.078683, "abitanti": "2376", "provincia": "Rieti", "codice_provincia": "RI", "regione": "Lazio", "stato": "Italia", "codice_stato": "IT"}, {"comune": "Antrona Schieranco", "codice_belfiore": "A317", "zona_climatica": null, "altitudine": null, "gradi_giorno": null, "lat": 46.05688, "lng": 8.09646, "abitanti": "397", "provincia": "Verbano-Cusio-Ossola", "codice_provincia": "VB", "regione": "Piemonte", "stato": "Italia", "codice_stato": "IT"}, {"comune": "Anversa degli Abruzzi", "codice_belfiore": "A318", "zona_climatica": null, "altitudine": null, "gradi_giorno": null, "lat": 41.994018, "lng": 13.804052, "abitanti": "316", "provincia": "L'Aquila", "codice_provincia": "AQ", "regione": "Abruzzo", "stato": "Italia", "codice_stato": "IT"}, {"comune": "Anzano del Parco", "codice_belfiore": "A319", "zona_climatica": null, "altitudine": null, "gradi_giorno": null, "lat": 45.768478, "lng": 9.195442, "abitanti": "1796", "provincia": "Como", "codice_provincia": "CO", "regione": "Lombardia", "stato": "Italia", "codice_stato": "IT"}, {"comune": "Anzano di Puglia", "codice_belfiore": "A320", "zona_climatica": null, "altitudine": null, "gradi_giorno": null, "lat": 41.122523, "lng": 15.28445, "abitanti": "1146", "provincia": "Foggia", "codice_provincia": "FG", "regione": "Puglia", "stato": "Italia", "codice_stato": "IT"}, {"comune": "Anzi", "codice_belfiore": "A321", "zona_climatica": null, "altitudine": null, "gradi_giorno": null, "lat": 40.516615, "lng": 15.924571, "abitanti": "1585", "provincia": "Potenza", "codice_provincia": "PZ", "regione": "Basilicata", "stato": "Italia", "codice_stato": "IT"}, {"comune": "Anzio", "codice_belfiore": "A323", "zona_climatica": null, "altitudine": null, "gradi_giorno": null, "lat": 41.447101, "lng": 12.628562, "abitanti": "52373", "provincia": "Roma", "codice_provincia": "RM", "regione": "Lazio", "stato": "Italia", "codice_stato": "IT"}, {"comune": "Anzola d'Ossola", "codice_belfiore": "A325", "zona_climatica": null, "altitudine": null, "gradi_giorno": null, "lat": 45.988976, "lng": 8.344519, "abitanti": "394", "provincia": "Verbano-Cusio-Ossola", "codice_provincia": "VB", "regione": "Piemonte", "stato": "Italia", "codice_stato": "IT"}, {"comune": "Anzola dell'Emilia", "codice_belfiore": "A324", "zona_climatica": null, "altitudine": null, "gradi_giorno": null, "lat": 44.546684, "lng": 11.193326, "abitanti": "12347", "provincia": "Bologna", "codice_provincia": "BO", "regione": "Emilia-Romagna", "stato": "Italia", "codice_stato": "IT"}, {"comune": "Aosta", "codice_belfiore": "A326", "zona_climatica": null, "altitudine": null, "gradi_giorno": null, "lat": 45.737088, "lng": 7.319665, "abitanti": "33409", "provincia": "Valle d'Aosta/Vallée d'Aoste", "codice_provincia": "AO", "regione": "Valle d'Aosta/Vallée d'Aoste", "stato": "Italia", "codice_stato": "IT"}, {"comune": "Apecchio", "codice_belfiore": "A327", "zona_climatica": null, "altitudine": null, "gradi_giorno": null, "lat": 43.558554, "lng": 12.420951, "abitanti": "1756", "provincia": "Pesaro e Urbino", "codice_provincia": "PU", "regione": "Marche", "stato": "Italia", "codice_stato": "IT"}, {"comune": "Apice", "codice_belfiore": "A328", "zona_climatica": null, "altitudine": null, "gradi_giorno": null, "lat": 41.118424, "lng": 14.914866, "abitanti": "5450", "provincia": "Benevento", "codice_provincia": "BN", "regione": "Campania", "stato": "Italia", "codice_stato": "IT"}, {"comune": "Apiro", "codice_belfiore": "A329", "zona_climatica": null, "altitudine": null, "gradi_giorno": null, "lat": 43.392256, "lng": 13.131157, "abitanti": "2099", "provincia": "Macerata", "codice_provincia": "MC", "regione": "Marche", "stato": "Italia", "codice_stato": "IT"}, {"comune": "Apollosa", "codice_belfiore": "A330", "zona_climatica": null, "altitudine": null, "gradi_giorno": null, "lat": 41.094118, "lng": 14.705337, "abitanti": "2476", "provincia": "Benevento", "codice_provincia": "BN", "regione": "Campania", "stato": "Italia", "codice_stato": "IT"}, {"comune": "Appiano Gentile", "codice_belfiore": "A333", "zona_climatica": null, "altitudine": null, "gradi_giorno": null, "lat": 45.734637, "lng": 8.979101, "abitanti": "7607", "provincia": "Como", "codice_provincia": "CO", "regione": "Lombardia", "stato": "Italia", "codice_stato": "IT"}, {"comune": "Appiano sulla strada del vino", "codice_belfiore": "A332", "zona_climatica": null, "altitudine": null, "gradi_giorno": null, "lat": 46.461908, "lng": 11.260867, "abitanti": "14817", "provincia": "Bolzano/Bozen", "codice_provincia": "BZ", "regione": "Trentino-Alto Adige/Südtirol", "stato": "Italia", "codice_stato": "IT"}, {"comune": "Appignano", "codice_belfiore": "A334", "zona_climatica": null, "altitudine": null, "gradi_giorno": null, "lat": 43.363732, "lng": 13.346596, "abitanti": "4065", "provincia": "Macerata", "codice_provincia": "MC", "regione": "Marche", "stato": "Italia", "codice_stato": "IT"}, {"comune": "Appignano del Tronto", "codice_belfiore": "A335", "zona_climatica": null, "altitudine": null, "gradi_giorno": null, "lat": 42.89867, "lng": 13.666387, "abitanti": "1708", "provincia": "Ascoli Piceno", "codice_provincia": "AP", "regione": "Marche", "stato": "Italia", "codice_stato": "IT"}, {"comune": "Aprica", "codice_belfiore": "A337", "zona_climatica": null, "altitudine": null, "gradi_giorno": null, "lat": 46.152697, "lng": 10.151656, "abitanti": "1482", "provincia": "Sondrio", "codice_provincia": "SO", "regione": "Lombardia", "stato": "Italia", "codice_stato": "IT"}, {"comune": "Apricale", "codice_belfiore": "A338", "zona_climatica": null, "altitudine": null, "gradi_giorno": null, "lat": 43.880389, "lng": 7.66021, "abitanti": "595", "provincia": "Imperia", "codice_provincia": "IM", "regione": "Liguria", "stato": "Italia", "codice_stato": "IT"}, {"comune": "Apricena", "codice_belfiore": "A339", "zona_climatica": null, "altitudine": null, "gradi_giorno": null, "lat": 41.783938, "lng": 15.443744, "abitanti": "12700", "provincia": "Foggia", "codice_provincia": "FG", "regione": "Puglia", "stato": "Italia", "codice_stato": "IT"}, {"comune": "Aprigliano", "codice_belfiore": "A340", "zona_climatica": null, "altitudine": null, "gradi_giorno": null, "lat": 39.241693, "lng": 16.341796, "abitanti": "2557", "provincia": "Cosenza", "codice_provincia": "CS", "regione": "Calabria", "stato": "Italia", "codice_stato": "IT"}, {"comune": "Aprilia", "codice_belfiore": "A341", "zona_climatica": null, "altitudine": null, "gradi_giorno": null, "lat": 41.594202, "lng": 12.648576, "abitanti": "73296", "provincia": "Latina", "codice_provincia": "LT", "regione": "Lazio", "stato": "Italia", "codice_stato": "IT"}, {"comune": "Aquara", "codice_belfiore": "A343", "zona_climatica": null, "altitudine": null, "gradi_giorno": null, "lat": 40.443909, "lng": 15.253857, "abitanti": "1389", "provincia": "Salerno", "codice_provincia": "SA", "regione": "Campania", "stato": "Italia", "codice_stato": "IT"}, {"comune": "Aquila d'Arroscia", "codice_belfiore": "A344", "zona_climatica": null, "altitudine": null, "gradi_giorno": null, "lat": 44.085927, "lng": 8.005247, "abitanti": "151", "provincia": "Imperia", "codice_provincia": "IM", "regione": "Liguria", "stato": "Italia", "codice_stato": "IT"}, {"comune": "Aquileia", "codice_belfiore": "A346", "zona_climatica": null, "altitudine": null, "gradi_giorno": null, "lat": 45.769614, "lng": 13.369798, "abitanti": "3199", "provincia": "Udine", "codice_provincia": "UD", "regione": "Friuli-Venezia Giulia", "stato": "Italia", "codice_stato": "IT"}, {"comune": "Aquilonia", "codice_belfiore": "A347", "zona_climatica": null, "altitudine": null, "gradi_giorno": null, "lat": 40.986721, "lng": 15.474455, "abitanti": "1532", "provincia": "Avellino", "codice_provincia": "AV", "regione": "Campania", "stato": "Italia", "codice_stato": "IT"}, {"comune": "Aquino", "codice_belfiore": "A348", "zona_climatica": null, "altitudine": null, "gradi_giorno": null, "lat": 41.491119, "lng": 13.70471, "abitanti": "4958", "provincia": "Frosinone", "codice_provincia": "FR", "regione": "Lazio", "stato": "Italia", "codice_stato": "IT"}, {"comune": "Aradeo", "codice_belfiore": "A350", "zona_climatica": null, "altitudine": null, "gradi_giorno": null, "lat": 40.130922, "lng": 18.129625, "abitanti": "9026", "provincia": "Lecce", "codice_provincia": "LE", "regione": "Puglia", "stato": "Italia", "codice_stato": "IT"}, {"comune": "Aragona", "codice_belfiore": "A351", "zona_climatica": null, "altitudine": null, "gradi_giorno": null, "lat": 37.403199, "lng": 13.617948, "abitanti": "9013", "provincia": "Agrigento", "codice_provincia": "AG", "regione": "Sicilia", "stato": "Italia", "codice_stato": "IT"}, {"comune": "Aramengo", "codice_belfiore": "A352", "zona_climatica": null, "altitudine": null, "gradi_giorno": null, "lat": 45.101082, "lng": 8.000528, "abitanti": "565", "provincia": "Asti", "codice_provincia": "AT", "regione": "Piemonte", "stato": "Italia", "codice_stato": "IT"}, {"comune": "Arba", "codice_belfiore": "A354", "zona_climatica": null, "altitudine": null, "gradi_giorno": null, "lat": 46.14498, "lng": 12.7914, "abitanti": "1302", "provincia": "Pordenone", "codice_provincia": "PN", "regione": "Friuli-Venezia Giulia", "stato": "Italia", "codice_stato": "IT"}, {"comune": "Arborea", "codice_belfiore": "A357", "zona_climatica": null, "altitudine": null, "gradi_giorno": null, "lat": 39.773846, "lng": 8.581753, "abitanti": "3826", "provincia": "Oristano", "codice_provincia": "OR", "regione": "Sardegna", "stato": "Italia", "codice_stato": "IT"}, {"comune": "Arborio", "codice_belfiore": "A358", "zona_climatica": null, "altitudine": null, "gradi_giorno": null, "lat": 45.494964, "lng": 8.385329, "abitanti": "840", "provincia": "Vercelli", "codice_provincia": "VC", "regione": "Piemonte", "stato": "Italia", "codice_stato": "IT"}, {"comune": "Arbus", "codice_belfiore": "A359", "zona_climatica": null, "altitudine": null, "gradi_giorno": null, "lat": 39.525839, "lng": 8.597831, "abitanti": "5886", "provincia": "Sud Sardegna", "codice_provincia": "SU", "regione": "Sardegna", "stato": "Italia", "codice_stato": "IT"}, {"comune": "Arcade", "codice_belfiore": "A360", "zona_climatica": null, "altitudine": null, "gradi_giorno": null, "lat": 45.785053, "lng": 12.219408, "abitanti": "4500", "provincia": "Treviso", "codice_provincia": "TV", "regione": "Veneto", "stato": "Italia", "codice_stato": "IT"}, {"comune": "Arce", "codice_belfiore": "A363", "zona_climatica": null, "altitudine": null, "gradi_giorno": null, "lat": 41.587716, "lng": 13.575429, "abitanti": "5458", "provincia": "Frosinone", "codice_provincia": "FR", "regione": "Lazio", "stato": "Italia", "codice_stato": "IT"}, {"comune": "Arcene", "codice_belfiore": "A365", "zona_climatica": null, "altitudine": null, "gradi_giorno": null, "lat": 45.575577, "lng": 9.614054, "abitanti": "4768", "provincia": "Bergamo", "codice_provincia": "BG", "regione": "Lombardia", "stato": "Italia", "codice_stato": "IT"}, {"comune": "Arcevia", "codice_belfiore": "A366", "zona_climatica": null, "altitudine": null, "gradi_giorno": null, "lat": 43.49945, "lng": 12.940096, "abitanti": "4345", "provincia": "Ancona", "codice_provincia": "AN", "regione": "Marche", "stato": "Italia", "codice_stato": "IT"}, {"comune": "Archi", "codice_belfiore": "A367", "zona_climatica": null, "altitudine": null, "gradi_giorno": null, "lat": 42.089937, "lng": 14.381217, "abitanti": "2066", "provincia": "Chieti", "codice_provincia": "CH", "regione": "Abruzzo", "stato": "Italia", "codice_stato": "IT"}, {"comune": "Arcidosso", "codice_belfiore": "A369", "zona_climatica": null, "altitudine": null, "gradi_giorno": null, "lat": 42.871631, "lng": 11.538343, "abitanti": "4295", "provincia": "Grosseto", "codice_provincia": "GR", "regione": "Toscana", "stato": "Italia", "codice_stato": "IT"}, {"comune": "Arcinazzo Romano", "codice_belfiore": "A370", "zona_climatica": null, "altitudine": null, "gradi_giorno": null, "lat": 41.879722, "lng": 13.114392, "abitanti": "1274", "provincia": "Roma", "codice_provincia": "RM", "regione": "Lazio", "stato": "Italia", "codice_stato": "IT"}, {"comune": "Arcisate", "codice_belfiore": "A371", "zona_climatica": null, "altitudine": null, "gradi_giorno": null, "lat": 45.860392, "lng": 8.859618, "abitanti": "9900", "provincia": "Varese", "codice_provincia": "VA", "regione": "Lombardia", "stato": "Italia", "codice_stato": "IT"}, {"comune": "Arco", "codice_belfiore": "A372", "zona_climatica": null, "altitudine": null, "gradi_giorno": null, "lat": 45.918133, "lng": 10.886095, "abitanti": "17823", "provincia": "Trento", "codice_provincia": "TN", "regione": "Trentino-Alto Adige/Südtirol", "stato": "Italia", "codice_stato": "IT"}, {"comune": "Arcola", "codice_belfiore": "A373", "zona_climatica": null, "altitudine": null, "gradi_giorno": null, "lat": 44.114382, "lng": 9.905967, "abitanti": "10172", "provincia": "La Spezia", "codice_provincia": "SP", "regione": "Liguria", "stato": "Italia", "codice_stato": "IT"}, {"comune": "Arcole", "codice_belfiore": "A374", "zona_climatica": null, "altitudine": null, "gradi_giorno": null, "lat": 45.358211, "lng": 11.286092, "abitanti": "6286", "provincia": "Verona", "codice_provincia": "VR", "regione": "Veneto", "stato": "Italia", "codice_stato": "IT"}, {"comune": "Arconate", "codice_belfiore": "A375", "zona_climatica": null, "altitudine": null, "gradi_giorno": null, "lat": 45.540664, "lng": 8.848162, "abitanti": "6658", "provincia": "Milano", "codice_provincia": "MI", "regione": "Lombardia", "stato": "Italia", "codice_stato": "IT"}, {"comune": "Arcore", "codice_belfiore": "A376", "zona_climatica": null, "altitudine": null, "gradi_giorno": null, "lat": 45.626556, "lng": 9.321465, "abitanti": "17833", "provincia": "Monza e della Brianza", "codice_provincia": "MB", "regione": "Lombardia", "stato": "Italia", "codice_stato": "IT"}, {"comune": "Arcugnano", "codice_belfiore": "A377", "zona_climatica": null, "altitudine": null, "gradi_giorno": null, "lat": 45.500472, "lng": 11.535699, "abitanti": "7708", "provincia": "Vicenza", "codice_provincia": "VI", "regione": "Veneto", "stato": "Italia", "codice_stato": "IT"}, {"comune": "Ardara", "codice_belfiore": "A379", "zona_climatica": null, "altitudine": null, "gradi_giorno": null, "lat": 40.621761, "lng": 8.810319, "abitanti": "754", "provincia": "Sassari", "codice_provincia": "SS", "regione": "Sardegna", "stato": "Italia", "codice_stato": "IT"}, {"comune": "Ardauli", "codice_belfiore": "A380", "zona_climatica": null, "altitudine": null, "gradi_giorno": null, "lat": 40.084652, "lng": 8.911529, "abitanti": "805", "provincia": "Oristano", "codice_provincia": "OR", "regione": "Sardegna", "stato": "Italia", "codice_stato": "IT"}, {"comune": "Ardea", "codice_belfiore": "M213", "zona_climatica": null, "altitudine": null, "gradi_giorno": null, "lat": 41.608712, "lng": 12.519382, "abitanti": "48365", "provincia": "Roma", "codice_provincia": "RM", "regione": "Lazio", "stato": "Italia", "codice_stato": "IT"}, {"comune": "Ardenno", "codice_belfiore": "A382", "zona_climatica": null, "altitudine": null, "gradi_giorno": null, "lat": 46.164292, "lng": 9.644944, "abitanti": "3224", "provincia": "Sondrio", "codice_provincia": "SO", "regione": "Lombardia", "stato": "Italia", "codice_stato": "IT"}, {"comune": "Ardesio", "codice_belfiore": "A383", "zona_climatica": null, "altitudine": null, "gradi_giorno": null, "lat": 45.937512, "lng": 9.931158, "abitanti": "3392", "provincia": "Bergamo", "codice_provincia": "BG", "regione": "Lombardia", "stato": "Italia", "codice_stato": "IT"}, {"comune": "Ardore", "codice_belfiore": "A385", "zona_climatica": null, "altitudine": null, "gradi_giorno": null, "lat": 38.19097, "lng": 16.168222, "abitanti": "4842", "provincia": "Reggio Calabria", "codice_provincia": "RC", "regione": "Calabria", "stato": "Italia", "codice_stato": "IT"}, {"comune": "Arena", "codice_belfiore": "A386", "zona_climatica": null, "altitudine": null, "gradi_giorno": null, "lat": 38.562779, "lng": 16.2099, "abitanti": "1279", "provincia": "Vibo Valentia", "codice_provincia": "VV", "regione": "Calabria", "stato": "Italia", "codice_stato": "IT"}, {"comune": "Arena Po", "codice_belfiore": "A387", "zona_climatica": null, "altitudine": null, "gradi_giorno": null, "lat": 45.096606, "lng": 9.362846, "abitanti": "1540", "provincia": "Pavia", "codice_provincia": "PV", "regione": "Lombardia", "stato": "Italia", "codice_stato": "IT"}, {"comune": "Arenzano", "codice_belfiore": "A388", "zona_climatica": null, "altitudine": null, "gradi_giorno": null, "lat": 44.402518, "lng": 8.683132, "abitanti": "11177", "provincia": "Genova", "codice_provincia": "GE", "regione": "Liguria", "stato": "Italia", "codice_stato": "IT"}, {"comune": "Arese", "codice_belfiore": "A389", "zona_climatica": null, "altitudine": null, "gradi_giorno": null, "lat": 45.54904, "lng": 9.077895, "abitanti": "19201", "provincia": "Milano", "codice_provincia": "MI", "regione": "Lombardia", "stato": "Italia", "codice_stato": "IT"}, {"comune": "Arezzo", "codice_belfiore": "A390", "zona_climatica": null, "altitudine": null, "gradi_giorno": null, "lat": 43.517202, "lng": 11.763879, "abitanti": "97842", "provincia": "Arezzo", "codice_provincia": "AR", "regione": "Toscana", "stato": "Italia", "codice_stato": "IT"}, {"comune": "Argegno", "codice_belfiore": "A391", "zona_climatica": null, "altitudine": null, "gradi_giorno": null, "lat": 45.943274, "lng": 9.128165, "abitanti": "681", "provincia": "Como", "codice_provincia": "CO", "regione": "Lombardia", "stato": "Italia", "codice_stato": "IT"}, {"comune": "Argelato", "codice_belfiore": "A392", "zona_climatica": null, "altitudine": null, "gradi_giorno": null, "lat": 44.64157, "lng": 11.34781, "abitanti": "9724", "provincia": "Bologna", "codice_provincia": "BO", "regione": "Emilia-Romagna", "stato": "Italia", "codice_stato": "IT"}, {"comune": "Argenta", "codice_belfiore": "A393", "zona_climatica": null, "altitudine": null, "gradi_giorno": null, "lat": 44.614338, "lng": 11.833842, "abitanti": "20780", "provincia": "Ferrara", "codice_provincia": "FE", "regione": "Emilia-Romagna", "stato": "Italia", "codice_stato": "IT"}, {"comune": "Argentera", "codice_belfiore": "A394", "zona_climatica": null, "altitudine": null, "gradi_giorno": null, "lat": 44.374629, "lng": 6.954209, "abitanti": "76", "provincia": "Cuneo", "codice_provincia": "CN", "regione": "Piemonte", "stato": "Italia", "codice_stato": "IT"}, {"comune": "Arguello", "codice_belfiore": "A396", "zona_climatica": null, "altitudine": null, "gradi_giorno": null, "lat": 44.58274, "lng": 8.11084, "abitanti": "191", "provincia": "Cuneo", "codice_provincia": "CN", "regione": "Piemonte", "stato": "Italia", "codice_stato": "IT"}, {"comune": "Argusto", "codice_belfiore": "A397", "zona_climatica": null, "altitudine": null, "gradi_giorno": null, "lat": 38.680783, "lng": 16.435404, "abitanti": "470", "provincia": "Catanzaro", "codice_provincia": "CZ", "regione": "Calabria", "stato": "Italia", "codice_stato": "IT"}, {"comune": "Ari", "codice_belfiore": "A398", "zona_climatica": null, "altitudine": null, "gradi_giorno": null, "lat": 42.29234, "lng": 14.263011, "abitanti": "1077", "provincia": "Chieti", "codice_provincia": "CH", "regione": "Abruzzo", "stato": "Italia", "codice_stato": "IT"}, {"comune": "Ariano Irpino", "codice_belfiore": "A399", "zona_climatica": null, "altitudine": null, "gradi_giorno": null, "lat": 41.152667, "lng": 15.088563, "abitanti": "21146", "provincia": "Avellino", "codice_provincia": "AV", "regione": "Campania", "stato": "Italia", "codice_stato": "IT"}, {"comune": "Ariano nel Polesine", "codice_belfiore": "A400", "zona_climatica": null, "altitudine": null, "gradi_giorno": null, "lat": 44.946084, "lng": 12.124922, "abitanti": "4147", "provincia": "Rovigo", "codice_provincia": "RO", "regione": "Veneto", "stato": "Italia", "codice_stato": "IT"}, {"comune": "Ariccia", "codice_belfiore": "A401", "zona_climatica": null, "altitudine": null, "gradi_giorno": null, "lat": 41.720709, "lng": 12.671348, "abitanti": "18182", "provincia": "Roma", "codice_provincia": "RM", "regione": "Lazio", "stato": "Italia", "codice_stato": "IT"}, {"comune": "Arielli", "codice_belfiore": "A402", "zona_climatica": null, "altitudine": null, "gradi_giorno": null, "lat": 42.382444, "lng": 14.359279, "abitanti": "1106", "provincia": "Chieti", "codice_provincia": "CH", "regione": "Abruzzo", "stato": "Italia", "codice_stato": "IT"}, {"comune": "Arienzo", "codice_belfiore": "A403", "zona_climatica": null, "altitudine": null, "gradi_giorno": null, "lat": 41.024257, "lng": 14.497052, "abitanti": "5331", "provincia": "Caserta", "codice_provincia": "CE", "regione": "Campania", "stato": "Italia", "codice_stato": "IT"}, {"comune": "Arignano", "codice_belfiore": "A405", "zona_climatica": null, "altitudine": null, "gradi_giorno": null, "lat": 45.040275, "lng": 7.901594, "abitanti": "1094", "provincia": "Torino", "codice_provincia": "TO", "regione": "Piemonte", "stato": "Italia", "codice_stato": "IT"}, {"comune": "Aritzo", "codice_belfiore": "A407", "zona_climatica": null, "altitudine": null, "gradi_giorno": null, "lat": 39.956777, "lng": 9.196562, "abitanti": "1237", "provincia": "Nuoro", "codice_provincia": "NU", "regione": "Sardegna", "stato": "Italia", "codice_stato": "IT"}, {"comune": "Arizzano", "codice_belfiore": "A409", "zona_climatica": null, "altitudine": null, "gradi_giorno": null, "lat": 45.957377, "lng": 8.582925, "abitanti": "1960", "provincia": "Verbano-Cusio-Ossola", "codice_provincia": "VB", "regione": "Piemonte", "stato": "Italia", "codice_stato": "IT"}, {"comune": "Arlena di Castro", "codice_belfiore": "A412", "zona_climatica": null, "altitudine": null, "gradi_giorno": null, "lat": 42.462824, "lng": 11.820655, "abitanti": "807", "provincia": "Viterbo", "codice_provincia": "VT", "regione": "Lazio", "stato": "Italia", "codice_stato": "IT"}, {"comune": "Arluno", "codice_belfiore": "A413", "zona_climatica": null, "altitudine": null, "gradi_giorno": null, "lat": 45.50507, "lng": 8.941541, "abitanti": "12144", "provincia": "Milano", "codice_provincia": "MI", "regione": "Lombardia", "stato": "Italia", "codice_stato": "IT"}, {"comune": "Armeno", "codice_belfiore": "A414", "zona_climatica": null, "altitudine": null, "gradi_giorno": null, "lat": 45.822457, "lng": 8.439199, "abitanti": "2134", "provincia": "Novara", "codice_provincia": "NO", "regione": "Piemonte", "stato": "Italia", "codice_stato": "IT"}, {"comune": "Armento", "codice_belfiore": "A415", "zona_climatica": null, "altitudine": null, "gradi_giorno": null, "lat": 40.307712, "lng": 16.064977, "abitanti": "576", "provincia": "Potenza", "codice_provincia": "PZ", "regione": "Basilicata", "stato": "Italia", "codice_stato": "IT"}, {"comune": "Armo", "codice_belfiore": "A418", "zona_climatica": null, "altitudine": null, "gradi_giorno": null, "lat": 44.087965, "lng": 7.914783, "abitanti": "116", "provincia": "Imperia", "codice_provincia": "IM", "regione": "Liguria", "stato": "Italia", "codice_stato": "IT"}, {"comune": "Armungia", "codice_belfiore": "A419", "zona_climatica": null, "altitudine": null, "gradi_giorno": null, "lat": 39.521745, "lng": 9.381846, "abitanti": "436", "provincia": "Sud Sardegna", "codice_provincia": "SU", "regione": "Sardegna", "stato": "Italia", "codice_stato": "IT"}, {"comune": "Arnad", "codice_belfiore": "A424", "zona_climatica": null, "altitudine": null, "gradi_giorno": null, "lat": 45.644475, "lng": 7.722183, "abitanti": "1235", "provincia": "Valle d'Aosta/Vallée d'Aoste", "codice_provincia": "AO", "regione": "Valle d'Aosta/Vallée d'Aoste", "stato": "Italia", "codice_stato": "IT"}, {"comune": "Arnara", "codice_belfiore": "A421", "zona_climatica": null, "altitudine": null, "gradi_giorno": null, "lat": 41.584518, "lng": 13.388402, "abitanti": "2252", "provincia": "Frosinone", "codice_provincia": "FR", "regione": "Lazio", "stato": "Italia", "codice_stato": "IT"}, {"comune": "Arnasco", "codice_belfiore": "A422", "zona_climatica": null, "altitudine": null, "gradi_giorno": null, "lat": 44.078228, "lng": 8.107449, "abitanti": "582", "provincia": "Savona", "codice_provincia": "SV", "regione": "Liguria", "stato": "Italia", "codice_stato": "IT"}, {"comune": "Arnesano", "codice_belfiore": "A425", "zona_climatica": null, "altitudine": null, "gradi_giorno": null, "lat": 40.3352, "lng": 18.091628, "abitanti": "4003", "provincia": "Lecce", "codice_provincia": "LE", "regione": "Puglia", "stato": "Italia", "codice_stato": "IT"},